storenumber,storename,address,addressline2,addressline3,city,state,zipcode,phonenumber,storehours,wireless,latitude,longitude,group,faxnumber,drivethru
1.004e+09,"Allen & Delancey","80 Delancey Street",,,"New York",NY,10002-3133,9175341397,"Mon: 06:00:00-22:00:00 Tue: 06:00:00-22:00:00 Wed: 06:00:00-22:00:00 Thu: 06:00:00-22:00:00 Fri: 06:00:00-23:00:00 Sat: 06:00:00-23:00:00 Sun: 06:00:00-22:00:00","Wireless Hotspot",32.547283501,35.8613541704,0,,
1.005e+09,"East Northport, Rte. 25","3011 Jericho Tpke.",,,"East Northport",NY,11731-6215,631-499-0258,"Mon: 05:30:00-22:00:00 Tue: 05:30:00-22:00:00 Wed: 05:30:00-22:00:00 Thu: 05:30:00-22:00:00 Fri: 05:00:00-23:00:00 Sat: 06:30:00-23:30:00 Sun: 06:30:00-22:00:00","Wireless Hotspot",31.960204388,35.9170260847,0,,
1.005e+09,"Smith Haven Mall","528 Smith Haven Mall","Smith Haven Mall",,"Lake Grove",NY,11755-1206,631-863-2061,"Mon: 07:45:00-21:30:00 Tue: 07:45:00-21:30:00 Wed: 07:45:00-21:30:00 Thu: 07:45:00-21:30:00 Fri: 07:45:00-21:30:00 Sat: 07:45:00-21:30:00 Sun: 09:00:00-18:00:00","Wireless Hotspot",32.277135765,35.8263376497,0,,
1.005e+09,"Fishkill, Ransley Square","11 Merrit Boulevard (Route 9)","Ransley Square",,Fishkill,NY,12524-2947,845-897-1201,"Mon: 05:30:00-23:00:00 Tue: 05:30:00-23:00:00 Wed: 05:30:00-23:00:00 Thu: 05:30:00-23:00:00 Fri: 05:30:00-23:00:00 Sat: 05:30:00-23:00:00 Sun: 06:00:00-23:00:00","Wireless Hotspot",31.946154163,35.8171742527,0,,
1.017e+09,"Riverhead, Tanger II","1770 West Main Street, Suite 1400","Tanger Outlet Center II",,Riverhead,NY,11901-7407,6317277015,"Mon: 08:00:00-21:00:00 Tue: 08:00:00-21:00:00 Wed: 08:00:00-21:00:00 Thu: 08:00:00-21:00:00 Fri: 08:00:00-21:00:00 Sat: 08:00:00-21:00:00 Sun: 09:00:00-20:00:00","Wireless Hotspot",31.888686873,35.9462914358,0,,
1.028e+10,"W. 56th & 6th","1380 Sixth Avenue",,,"New York",NY,10019,212-977-1382,"Mon: 05:30:00-23:00:00 Tue: 05:30:00-23:00:00 Wed: 05:30:00-23:00:00 Thu: 05:30:00-23:00:00 Fri: 05:30:00-00:00:00 Sat: 06:00:00-00:00:00 Sun: 06:00:00-23:00:00","Wireless Hotspot",31.979351006,35.9486073459,0,,
1.028e+10,"Pearl & Hanover","110 Pearl Street",,,"New York",NY,10005-3510,212-482-6530,"Mon: 05:30:00-21:30:00 Tue: 05:30:00-21:30:00 Wed: 05:30:00-21:30:00 Thu: 05:30:00-21:30:00 Fri: 05:30:00-21:30:00 Sat: 07:00:00-20:00:00 Sun: 07:00:00-20:00:00","Wireless Hotspot",32.026098850,35.8401152208,0,,
1.028e+10,"Northport Village","832A Fort Salonga Road","Crescent Bay Shopping Center",,Northport,NY,11768-2276,631-754-0840,"Mon: 05:30:00-22:00:00 Tue: 05:30:00-22:00:00 Wed: 05:30:00-22:00:00 Thu: 05:30:00-22:00:00 Fri: 05:30:00-23:00:00 Sat: 05:30:00-23:00:00 Sun: 06:30:00-21:00:00","Wireless Hotspot",32.472271065,35.7974762557,0,,
1.028e+10,Bayport,"911 Montauk Highway","The Shoppes at Bayport",,Bayport,NY,11705-1613,631-472-0151,"Mon: 05:30:00-22:00:00 Tue: 05:30:00-22:00:00 Wed: 05:30:00-22:00:00 Thu: 05:30:00-22:00:00 Fri: 05:30:00-22:00:00 Sat: 06:30:00-22:00:00 Sun: 06:30:00-21:00:00","Wireless Hotspot",32.508818815,35.8932659078,0,,
1.029e+10,"Binghamton, Front Street","904 Upper Front Street","The Gardens",,Binghamton,NY,13905-1342,607-722-1702,"Mon: 06:00:00-22:00:00 Tue: 06:00:00-22:00:00 Wed: 06:00:00-22:00:00 Thu: 06:00:00-22:00:00 Fri: 06:00:00-23:00:00 Sat: 06:00:00-23:00:00 Sun: 06:00:00-22:00:00","Wireless Hotspot",31.927384147,35.9383553467,0,,
1.033e+10,"E. Northport, Larkfield Rd","506 Larkfield Rd",,,"East Northport",NY,11731-4202,631-266-1879,"Mon: 05:30:00-22:00:00 Tue: 05:30:00-22:00:00 Wed: 05:30:00-22:00:00 Thu: 05:30:00-22:00:00 Fri: 05:30:00-22:30:00 Sat: 06:00:00-22:30:00 Sun: 06:30:00-22:00:00","Wireless Hotspot",32.508712673,35.8937237250,0,,
1.040e+10,"Ithaca on The Commons","130 E. Seneca Street","Seneca Place on The Commons",,Ithaca,NY,14850-4356,607-256-0452,"Mon: 06:00:00-22:00:00 Tue: 06:00:00-22:00:00 Wed: 06:00:00-22:00:00 Thu: 06:00:00-22:00:00 Fri: 06:00:00-23:00:00 Sat: 06:00:00-23:00:00 Sun: 06:00:00-21:00:00","Wireless Hotspot",31.927486111,35.9383271498,0,,
1.040e+10,"21st & 5th","4 W. 21st Street",,,"New York",NY,10010-6945,646-336-6583,"Mon: 06:00:00-21:30:00 Tue: 06:00:00-21:30:00 Wed: 06:00:00-21:30:00 Thu: 06:00:00-21:30:00 Fri: 06:00:00-21:30:00 Sat: 07:00:00-21:00:00 Sun: 07:00:00-21:00:00","Wireless Hotspot",30.245894175,35.4695541328,0,,
1.040e+09,"Schenectady, Watt St.","2441 Watt Street",,,Schenectady,NY,12304-3313,518-347-1716,"Mon: 05:30:00-23:00:00 Tue: 05:30:00-23:00:00 Wed: 05:30:00-23:00:00 Thu: 05:30:00-23:00:00 Fri: 05:30:00-23:00:00 Sat: 06:00:00-23:00:00 Sun: 06:00:00-23:00:00","Wireless Hotspot",31.927452564,35.9383635880,0,,
1.040e+10,"Staten Island Mall","2655 Richmond Avenue","Staten Island Mall",1485,"Staten Island",NY,10314-5821,718-477-5010,"Mon: 08:00:00-21:00:00 Tue: 08:00:00-21:00:00 Wed: 08:00:00-21:00:00 Thu: 08:00:00-21:00:00 Fri: 08:00:00-21:00:00 Sat: 08:00:00-21:00:00 Sun: 09:00:00-18:00:00","Wireless Hotspot",31.927307775,35.9381736174,0,,
1.046e+10,"Tuckahoe Train Station","1 Depot Square","Tuckahoe Train Station",,Tuckahoe,NY,10707-4003,914-793-0746,"Mon: 05:30:00-19:00:00 Tue: 05:30:00-19:00:00 Wed: 05:30:00-19:00:00 Thu: 05:30:00-19:00:00 Fri: 05:30:00-19:00:00 Sat: 06:30:00-19:00:00 Sun: 07:00:00-19:00:00","Wireless Hotspot",31.926783516,35.9382286241,0,,
1.051e+10,"East Greenbush","599 N Greenbush Rd.",,,Rensselaer,NY,12144-9512,518-286-3153,"Mon: 05:30:00-23:00:00 Tue: 05:30:00-23:00:00 Wed: 05:30:00-23:00:00 Thu: 05:30:00-23:00:00 Fri: 05:30:00-23:00:00 Sat: 06:00:00-23:00:00 Sun: 06:30:00-22:00:00","Wireless Hotspot",31.927246455,35.9378947409,0,,
1.051e+10,"Sea Cliff, Glen Cove Ave","202 Glen Cove Ave",,"Suite A","Glen Cove",NY,11542-4189,516-759-0853,"Mon: 05:30:00-22:30:00 Tue: 05:30:00-22:30:00 Wed: 05:30:00-22:30:00 Thu: 05:30:00-22:30:00 Fri: 05:30:00-23:00:00 Sat: 06:00:00-23:30:00 Sun: 06:30:00-22:00:00","Wireless Hotspot",31.927326934,35.9383001208,0,,
1.052e+10,"Kingston, NY","39 Massa Drive",,,Kingston,NY,12401-8107,845-336-5304,"Mon: 06:00:00-21:30:00 Tue: 06:00:00-21:30:00 Wed: 06:00:00-21:30:00 Thu: 06:00:00-21:30:00 Fri: 06:00:00-22:00:00 Sat: 06:00:00-22:00:00 Sun: 07:00:00-21:00:00","Wireless Hotspot",31.927412205,35.9383529549,0,,
1.061e+10,"Third & 60th","1021 Third Avenue",,,"New York",NY,10065-8501,212-486-6764,"Mon: 05:30:00-23:00:00 Tue: 05:30:00-23:00:00 Wed: 05:30:00-23:00:00 Thu: 05:30:00-23:00:00 Fri: 05:30:00-23:00:00 Sat: 06:30:00-23:00:00 Sun: 07:00:00-22:00:00","Wireless Hotspot",31.999651557,35.8762150913,0,,
1.061e+10,"Watertown, NY","1242 Arsenal Street",,,Watertown,NY,13601-2214,315-779-9029,"Mon: 05:30:00-23:00:00 Tue: 05:30:00-23:00:00 Wed: 05:30:00-23:00:00 Thu: 05:30:00-23:00:00 Fri: 05:30:00-23:00:00 Sat: 06:00:00-23:00:00 Sun: 06:00:00-22:00:00","Wireless Hotspot",32.003634460,35.9310922848,0,,
1.061e+10,"Plattsburgh, Cornelia St.","359 Cornelia Street",,,Plattsburgh,NY,12901-2211,518-566-8142,"Mon: 06:00:00-21:30:00 Tue: 06:00:00-21:30:00 Wed: 06:00:00-21:30:00 Thu: 06:00:00-21:30:00 Fri: 06:00:00-22:00:00 Sat: 06:00:00-22:00:00 Sun: 07:00:00-21:00:00","Wireless Hotspot",31.988457701,35.8699255886,0,,
1.069e+10,"Bloomberg Building","731 Lexington Avenue",,,"New York",NY,10022-1331,212-644-0692,"Mon: 05:00:00-21:00:00 Tue: 05:00:00-21:00:00 Wed: 05:00:00-21:00:00 Thu: 05:00:00-21:00:00 Fri: 05:00:00-21:00:00 Sat: 05:00:00-21:00:00 Sun: 05:00:00-21:00:00","Wireless Hotspot",31.962010625,35.9017615630,0,,
1.075e+10,"Transit Commons","9660 Transit Road","Tops Transit Commons Shopping Ctr.",101,"East Amherst",NY,14051-1484,716-636-1794,"Mon: 05:30:00-23:00:00 Tue: 05:30:00-23:00:00 Wed: 05:30:00-23:00:00 Thu: 05:30:00-23:00:00 Fri: 05:30:00-23:00:00 Sat: 06:00:00-23:00:00 Sun: 06:00:00-22:00:00","Wireless Hotspot",31.966032383,35.8839381478,0,,
1.075e+10,"Roosevelt Island","455 Main Street",,,"New York",NY,10044-0192,212-371-1298,"Mon: 06:00:00-21:00:00 Tue: 06:00:00-21:00:00 Wed: 06:00:00-21:00:00 Thu: 06:00:00-21:00:00 Fri: 06:00:00-22:00:00 Sat: 06:00:00-22:00:00 Sun: 06:00:00-22:00:00","Wireless Hotspot",31.966173562,35.8839039962,0,,
1.078e+10,"35th & 5th","373 5th Avenue",,,"New York",NY,10016-3307,212-213-5363,"Mon: 05:30:00-23:00:00 Tue: 05:30:00-23:00:00 Wed: 05:30:00-23:00:00 Thu: 05:30:00-23:00:00 Fri: 05:30:00-23:00:00 Sat: 07:00:00-23:00:00 Sun: 07:00:00-22:00:00","Wireless Hotspot",31.970991436,35.8535413220,0,,
1.084e+10,"55th & Lexington","655 Lexington Avenue",,,"New York",NY,10022-4502,212-308-5717,"Mon: 06:00:00-21:00:00 Tue: 06:00:00-21:00:00 Wed: 06:00:00-21:00:00 Thu: 06:00:00-21:00:00 Fri: 06:00:00-21:00:00 Sat: 06:00:00-21:00:00 Sun: 06:00:00-21:00:00","Wireless Hotspot",32.555829670,36.0091223363,0,,
1.097e+10,"The Marketplace Mall","1 Miracle Mile Drive","The Marketplace Mall",KIO13,Rochester,NY,14623-5851,585-427-2370,"Mon: 08:00:00-21:30:00 Tue: 08:00:00-21:30:00 Wed: 08:00:00-21:30:00 Thu: 08:00:00-21:30:00 Fri: 08:00:00-21:30:00 Sat: 08:00:00-21:30:00 Sun: 09:30:00-18:00:00","Wireless Hotspot",32.285724745,35.9006671919,0,,
1.106e+10,"Crossgates Mall","1 Crossgates Mall Road","Crossgates Mall",B231,Albany,NY,12203-5367,518-218-1520,"Mon: 08:30:00-22:00:00 Tue: 08:30:00-22:00:00 Wed: 08:30:00-22:00:00 Thu: 08:30:00-22:00:00 Fri: 08:30:00-22:00:00 Sat: 08:30:00-22:00:00 Sun: 09:30:00-19:00:00","Wireless Hotspot",32.023213251,35.8668221773,0,,
1.107e+10,"Lake Placid, Main St","2490 Main St.",,,"Lake Placid",NY,12946,5185231437,"Mon: 06:30:00-21:00:00 Tue: 06:30:00-21:00:00 Wed: 06:30:00-21:00:00 Thu: 06:30:00-21:00:00 Fri: 06:30:00-22:00:00 Sat: 06:30:00-22:00:00 Sun: 07:30:00-21:00:00","Wireless Hotspot",32.436663912,36.2045646360,0,,
1.119e+10,"1244 Western Ave","1244 Western Avenue",,,Albany,NY,12203-3322,518-591-0372,"Mon: 05:30:00-23:30:00 Tue: 05:30:00-23:30:00 Wed: 05:30:00-23:30:00 Thu: 05:30:00-23:30:00 Fri: 06:00:00-00:00:00 Sat: 06:00:00-00:00:00 Sun: 07:00:00-22:00:00","Wireless Hotspot",31.984895765,35.8537936564,0,,
1.128e+10,"New Scotland Avenue","62 New Scotland Ave","Hilton Garden Inn at Albany Medical Ctr",,Albany,NY,12208-3466,518-694-8171,"Mon: 05:30:00-23:00:00 Tue: 05:30:00-23:00:00 Wed: 05:30:00-23:00:00 Thu: 05:30:00-23:00:00 Fri: 05:30:00-23:00:00 Sat: 05:30:00-23:00:00 Sun: 05:30:00-23:00:00","Wireless Hotspot",31.988098167,35.9443464144,0,,
1.128e+10,"Lexington & 85th","1261 Lexington Avenue",,,"New York",NY,10028-2001,212-879-1764,"Mon: 05:00:00-23:00:00 Tue: 05:00:00-23:00:00 Wed: 05:00:00-23:00:00 Thu: 05:00:00-23:00:00 Fri: 05:00:00-23:00:00 Sat: 06:00:00-23:00:00 Sun: 06:00:00-23:00:00","Wireless Hotspot",31.902198633,35.8403221167,0,,
1.137e+10,"Nanuet, Rockland Plaza","126 West Rockland Plaza",,,Nanuet,NY,10954-2210,845-624-2085,"Mon: 06:00:00-21:00:00 Tue: 06:00:00-21:00:00 Wed: 06:00:00-21:00:00 Thu: 06:00:00-21:00:00 Fri: 06:00:00-22:00:00 Sat: 06:30:00-22:00:00 Sun: 07:00:00-21:00:00","Wireless Hotspot",32.339811832,36.2035711316,0,,
1.137e+10,"Queens Blvd, Sunnyside","46-09 Queens Blvd.",,,Sunnyside,NY,11104-1711,718-472-5215,"Mon: 05:00:00-23:00:00 Tue: 05:00:00-23:00:00 Wed: 05:00:00-23:00:00 Thu: 05:00:00-23:00:00 Fri: 05:00:00-02:00:00 Sat: 06:00:00-02:00:00 Sun: 07:00:00-23:00:00","Wireless Hotspot",32.335681095,36.2197973240,0,,
1.142e+10,"Carousel Center Mall","9737 Carousel Ctr",,,Syracuse,NY,13290-9681,315-473-9709,"Mon: 08:00:00-22:00:00 Tue: 08:00:00-22:00:00 Wed: 08:00:00-22:00:00 Thu: 08:00:00-22:00:00 Fri: 08:00:00-22:30:00 Sat: 08:00:00-22:30:00 Sun: 09:00:00-19:00:00","Wireless Hotspot",32.553065044,35.8522755970,0,,
1.154e+10,"Rockaway Tpke, Cedarhurst","316 Rockaway Tpke.",,,Cedarhurst,NY,11516-1116,516-371-0238,"Mon: 05:00:00-23:00:00 Tue: 05:00:00-23:00:00 Wed: 05:00:00-23:00:00 Thu: 05:00:00-23:00:00 Fri: 05:00:00-22:30:00 Sat: 06:00:00-23:00:00 Sun: 06:00:00-22:30:00","Wireless Hotspot",32.542447300,35.8880978000,0,,
1.154e+10,"Webster, Hard & Ridge","944 Hard Road","Webster Plaza","Suite A",Webster,NY,14580-8995,585-872-0250,"Mon: 05:30:00-22:00:00 Tue: 05:30:00-22:00:00 Wed: 05:30:00-22:00:00 Thu: 05:30:00-22:00:00 Fri: 05:30:00-22:00:00 Sat: 06:00:00-22:00:00 Sun: 06:00:00-21:30:00",,31.960317889,35.9303039233,0,,
1.159e+10,"Palisade II","3530 PALISADES CENTER DR","Palisade Center Mall",G202,"West Nyack",NY,10994-6605,845-727-7278,"Mon: 07:30:00-22:00:00 Tue: 07:30:00-22:00:00 Wed: 07:30:00-22:00:00 Thu: 07:30:00-22:00:00 Fri: 07:30:00-22:30:00 Sat: 07:30:00-22:30:00 Sun: 08:00:00-20:00:00","Wireless Hotspot",32.330173862,36.2013167254,0,,
1.165e+10,"145th & Bradhurst","301 W. 145th St.",,,"New York",NY,10039-3159,212-690-7835,"Mon: 05:30:00-22:30:00 Tue: 05:30:00-22:30:00 Wed: 05:30:00-22:30:00 Thu: 05:30:00-22:30:00 Fri: 05:30:00-22:30:00 Sat: 06:00:00-23:00:00 Sun: 06:00:00-22:30:00","Wireless Hotspot",31.974252018,36.0327805306,0,,
1.165e+10,"Hudson & King","345 Hudson St.",,,"New York",NY,10014-4502,646-486-0487,"Mon: 06:00:00-20:00:00 Tue: 06:00:00-20:00:00 Wed: 06:00:00-20:00:00 Thu: 06:00:00-20:00:00 Fri: 06:00:00-20:00:00 Sat: 00:00:00-00:00:00 Sun: 00:00:00-00:00:00","Wireless Hotspot",31.790544152,35.9247026696,0,,
1.165e+10,"Hudson & 10th","518 Hudson Street",,,"New York",NY,10014-2854,646-486-0524,"Mon: 05:30:00-21:30:00 Tue: 05:30:00-21:30:00 Wed: 05:30:00-21:30:00 Thu: 05:30:00-22:30:00 Fri: 05:30:00-22:30:00 Sat: 06:00:00-22:30:00 Sun: 06:00:00-21:30:00","Wireless Hotspot",32.351088691,36.1960990104,0,,
1.174e+10,"49th & Madison","425 Madison Avenue",,,"New York",NY,10017-1110,212/644/9462,"Mon: 05:30:00-22:00:00 Tue: 05:30:00-22:00:00 Wed: 05:30:00-22:00:00 Thu: 05:30:00-22:00:00 Fri: 05:30:00-22:00:00 Sat: 06:00:00-22:00:00 Sun: 06:00:00-22:00:00","Wireless Hotspot",31.996426032,35.9797308029,0,,
1.174e+10,"Madison & 44th","340 Madison Avenue",,,"New York",NY,10173-0002,212-867-0928,"Mon: 05:30:00-22:00:00 Tue: 05:30:00-22:00:00 Wed: 05:30:00-22:00:00 Thu: 05:30:00-22:00:00 Fri: 05:30:00-22:00:00 Sat: 06:30:00-20:00:00 Sun: 06:30:00-20:00:00","Wireless Hotspot",31.975960897,35.9899784120,0,,
1.174e+10,"63rd & Broadway","1889 Broadway",,,"New York",NY,10023-7005,212-245-1362,"Mon: 05:30:00-00:00:00 Tue: 05:30:00-00:00:00 Wed: 05:30:00-00:00:00 Thu: 05:30:00-00:00:00 Fri: 05:30:00-00:00:00 Sat: 06:00:00-00:00:00 Sun: 06:00:00-23:00:00","Wireless Hotspot",32.351083718,36.1964027743,0,,
1.176e+10,"Empire State Building","350 Fifth Avenue",,,"New York",NY,10118-0110,212-268-5471,"Mon: 06:00:00-23:00:00 Tue: 06:00:00-23:00:00 Wed: 06:00:00-23:00:00 Thu: 06:00:00-23:00:00 Fri: 06:00:00-00:00:00 Sat: 07:00:00-00:00:00 Sun: 07:00:00-23:00:00","Wireless Hotspot",31.701170244,35.9537932652,0,,
1.177e+10,"Sixth & 58th","1411 Sixth Avenue",,,"New York",NY,10019,212-664-1305,"Mon: 05:30:00-22:00:00 Tue: 05:30:00-22:00:00 Wed: 05:30:00-22:00:00 Thu: 05:30:00-22:00:00 Fri: 05:30:00-22:00:00 Sat: 06:00:00-22:00:00 Sun: 06:00:00-22:00:00","Wireless Hotspot",31.077903606,35.6927906644,0,,
1.181e+10,"164 Smith St, Bklyn","164 Smith Street",,,Brooklyn,NY,11201-6303,718-422-0178,"Mon: 06:00:00-22:00:00 Tue: 06:00:00-22:00:00 Wed: 06:00:00-22:00:00 Thu: 06:00:00-22:00:00 Fri: 06:00:00-23:00:00 Sat: 07:00:00-23:00:00 Sun: 07:00:00-22:00:00","Wireless Hotspot",32.342270444,36.2060703662,0,,
1.181e+10,"514 86th St, Brooklyn","514 86th Street",,,Brooklyn,NY,11209-5211,718-491-1340,"Mon: 06:00:00-22:30:00 Tue: 06:00:00-22:30:00 Wed: 06:00:00-22:30:00 Thu: 06:00:00-22:30:00 Fri: 06:00:00-23:00:00 Sat: 06:30:00-23:00:00 Sun: 06:30:00-22:30:00","Wireless Hotspot",31.977381290,35.9816824150,0,,
1.181e+10,"Polytechnic University, Metro Tech","6 Metro Tech","Poly Tech Institute",,Brooklyn,NY,11201-3840,718-522-2396,"Mon: 05:30:00-22:00:00 Tue: 05:30:00-22:00:00 Wed: 05:30:00-22:00:00 Thu: 05:30:00-22:00:00 Fri: 05:30:00-22:00:00 Sat: 06:30:00-19:00:00 Sun: 06:30:00-18:00:00","Wireless Hotspot",31.930118122,35.9035535147,0,,
1.181e+10,"Colonie, Albany-Shaker & Wolf","243 Wolf Rd",,,Albany,NY,12205-1114,518-482-2370,"Mon: 05:30:00-23:00:00 Tue: 05:30:00-23:00:00 Wed: 05:30:00-23:00:00 Thu: 05:30:00-23:00:00 Fri: 05:30:00-23:00:00 Sat: 06:00:00-23:00:00 Sun: 06:00:00-22:30:00",,31.961255556,35.9146603066,0,,
1.181e+10,"Jericho Tpke, Commack","2055A Jericho Tpke",,,Commack,NY,11725-3007,631-543-0140,"Mon: 04:30:00-22:00:00 Tue: 04:30:00-22:00:00 Wed: 04:30:00-22:00:00 Thu: 04:30:00-22:00:00 Fri: 04:30:00-23:00:00 Sat: 05:30:00-23:00:00 Sun: 06:30:00-22:00:00","Wireless Hotspot",32.038554503,36.1046190104,0,,
1.181e+10,"The Shops at Atlas Park, Queens","8000 Cooper Avenue",,,Glendale,NY,11385-7734,718-416-1521,"Mon: 07:00:00-21:30:00 Tue: 07:00:00-21:30:00 Wed: 07:00:00-21:30:00 Thu: 07:00:00-21:30:00 Fri: 07:00:00-23:00:00 Sat: 07:30:00-23:00:00 Sun: 07:30:00-22:00:00","Wireless Hotspot",31.981615469,35.9451097146,0,,
1.186e+10,"Pleasantville, Memorial Plaza","42 Memorial Plaza",,,Pleasantville,NY,10570-2943,914-769-1020,"Mon: 05:30:00-22:00:00 Tue: 05:30:00-22:00:00 Wed: 05:30:00-22:00:00 Thu: 05:30:00-22:00:00 Fri: 05:30:00-23:00:00 Sat: 06:00:00-23:00:00 Sun: 06:30:00-22:00:00","Wireless Hotspot",31.894031358,35.8388017363,0,,
1.193e+10,"3503 Johnson Avenue, Bronx","3503 Johnson Avenue",,,Bronx,NY,10463-1602,718-543-2348,"Mon: 06:00:00-22:00:00 Tue: 06:00:00-22:00:00 Wed: 06:00:00-22:00:00 Thu: 06:00:00-22:00:00 Fri: 06:00:00-23:00:00 Sat: 07:00:00-23:00:00 Sun: 07:00:00-22:00:00","Wireless Hotspot",30.200022452,35.7325231777,0,,
1.193e+10,"College Avenue, Ithaca","402 College Avenue",,"Suite 402",Ithaca,NY,14850-6708,607-256-0231,"Mon: 07:00:00-22:00:00 Tue: 07:00:00-22:00:00 Wed: 07:00:00-22:00:00 Thu: 07:00:00-22:00:00 Fri: 07:00:00-22:00:00 Sat: 07:00:00-22:00:00 Sun: 07:00:00-22:00:00","Wireless Hotspot",31.931345743,35.9119041716,0,,
1.193e+10,"118-24 Queens Blvd, Queens","118-24 Queens Blvd",,,"Kew Gardens",NY,11415,"718 261-4246","Mon: 05:30:00-23:00:00 Tue: 05:30:00-23:00:00 Wed: 05:30:00-23:00:00 Thu: 05:30:00-00:00:00 Fri: 05:30:00-00:00:00 Sat: 05:30:00-00:00:00 Sun: 07:00:00-22:00:00",,32.041026104,36.1050149619,0,,
1.193e+10,"Broadway & Canal","405 Broadway",,,"New York",NY,10013-3558,646-613-0148,"Mon: 06:00:00-21:00:00 Tue: 06:00:00-21:00:00 Wed: 06:00:00-21:00:00 Thu: 06:00:00-21:00:00 Fri: 06:00:00-21:00:00 Sat: 07:00:00-20:30:00 Sun: 07:00:00-20:30:00","Wireless Hotspot",32.534392538,35.8510518792,0,,
1.197e+10,"Dobbs Ferry, NY","45 Stanley Avenue",,,"Dobbs Ferry",NY,10522-3405,914-674-5940,"Mon: 05:30:00-22:00:00 Tue: 05:30:00-22:00:00 Wed: 05:30:00-22:00:00 Thu: 05:30:00-22:00:00 Fri: 05:30:00-22:30:00 Sat: 06:00:00-22:30:00 Sun: 06:00:00-21:30:00","Wireless Hotspot",31.927337169,35.9383877853,0,,
1.197e+10,"East Setauket, Nesconset HIghway","4020 Nesconset Highway",,,"East Setauket",NY,11733-3306,631-642-0263,"Mon: 05:30:00-22:00:00 Tue: 05:30:00-22:00:00 Wed: 05:30:00-22:00:00 Thu: 05:30:00-22:00:00 Fri: 05:30:00-22:00:00 Sat: 05:30:00-22:00:00 Sun: 05:30:00-22:00:00",,31.981085996,35.9381307437,0,,
1.313e+10,"Target Queens Place T-1344","8801 Queens Blvd",,,Elmhurst,NY,11373-4449,718-760-5656,"Mon: - Tue: - Wed: - Thu: - Fri: - Sat: - Sun: -",,32.024334712,35.8661877800,0,,
1.315e+10,"SUNY Geneseo MacVittle College","1 College Circle",,,Geneseo,NY,14454-1401,,"Mon: 07:00:00-15:30:00 Tue: 07:00:00-15:30:00 Wed: 07:00:00-15:30:00 Thu: 07:00:00-15:30:00 Fri: 07:00:00-15:30:00 Sat: 07:00:00-15:30:00 Sun: 07:00:00-15:30:00",,31.961685200,35.9270313000,0,,
1.326e+10,"910 Manhattan Ave, Bklyn","910 Manhattan Avenue",,,Brooklyn,NY,11222-2107,718-609-0467,"Mon: 06:00:00-22:30:00 Tue: 06:00:00-22:30:00 Wed: 06:00:00-22:30:00 Thu: 06:00:00-22:30:00 Fri: 06:00:00-23:00:00 Sat: 06:30:00-23:00:00 Sun: 07:00:00-22:30:00","Wireless Hotspot",31.946022121,35.9311491733,0,,
1.326e+10,"Vestal, University Plaza","4706 Vestal Parkway East",,,Vestal,NY,13850-3708,607-797-1208,"Mon: 06:00:00-22:00:00 Tue: 06:00:00-22:00:00 Wed: 06:00:00-22:00:00 Thu: 06:00:00-22:00:00 Fri: 06:00:00-23:00:00 Sat: 06:00:00-23:00:00 Sun: 06:00:00-22:30:00","Wireless Hotspot",31.948427268,35.9199974899,0,,
1.335e+10,"Canandaigua, Rt 5/20","10 Muar St.","Parkway Plaza",,Canandaigua,NY,14424-2321,585-394-6970,"Mon: 05:30:00-22:00:00 Tue: 05:30:00-22:00:00 Wed: 05:30:00-22:00:00 Thu: 05:30:00-22:00:00 Fri: 05:30:00-22:00:00 Sat: 06:00:00-22:00:00 Sun: 06:00:00-21:30:00","Wireless Hotspot",31.993001636,35.8657178890,0,,
1.345e+10,"Bellerose, Jericho & 251st","251-05 Jamaica Avenue",,,Bellerose,NY,11426,7183471304,"Mon: 05:30:00-21:00:00 Tue: 05:30:00-21:00:00 Wed: 05:30:00-21:00:00 Thu: 05:30:00-21:00:00 Fri: 05:30:00-22:00:00 Sat: 06:30:00-22:00:00 Sun: 07:00:00-21:00:00","Wireless Hotspot",30.182593980,35.7793392514,0,,
1.345e+10,"Greece, West Ridge @ Center Pl","100 Center Place Drive",,,Greece,NY,14615-4011,585-865-6960,"Mon: 05:00:00-22:00:00 Tue: 05:00:00-22:00:00 Wed: 05:00:00-22:00:00 Thu: 05:00:00-22:00:00 Fri: 05:00:00-22:00:00 Sat: 05:30:00-22:00:00 Sun: 05:30:00-22:00:00","Wireless Hotspot",30.182637412,35.7795676151,0,,
1.345e+10,"Latham, Troy-Schenectady Road","549 Troy-Schenectady Road",,,Latham,NY,12110-2811,518-783-0568,"Mon: 05:30:00-23:00:00 Tue: 05:30:00-23:00:00 Wed: 05:30:00-23:00:00 Thu: 05:30:00-23:00:00 Fri: 05:30:00-00:00:00 Sat: 06:00:00-00:00:00 Sun: 06:00:00-23:00:00",,32.373290348,36.0703263903,0,,
1.345e+10,"Middletown, Orange Plaza","51 Orange Plaza Lane","Orange Plaza",,Middletown,NY,10940-2254,845-343-0747,"Mon: 05:30:00-23:00:00 Tue: 05:30:00-23:00:00 Wed: 05:30:00-23:00:00 Thu: 05:30:00-23:00:00 Fri: 05:30:00-23:00:00 Sat: 05:30:00-23:00:00 Sun: 06:30:00-22:00:00","Wireless Hotspot",32.044957845,36.1011858250,0,,
1.346e+10,"42nd & Second","220 East 42nd St",,,"New York",NY,10017-5806,212-867-1264,"Mon: 06:00:00-21:00:00 Tue: 06:00:00-21:00:00 Wed: 06:00:00-21:00:00 Thu: 06:00:00-21:00:00 Fri: 06:00:00-21:00:00 Sat: 06:30:00-20:00:00 Sun: 06:30:00-20:00:00","Wireless Hotspot",32.527981978,35.8393775466,0,,
1.354e+10,"Morris Park, Eastchester Rd - Bronx","1728 Eastchester Road",,,Bronx,NY,10461-2322,718-239-4931,"Mon: 06:00:00-22:00:00 Tue: 06:00:00-22:00:00 Wed: 06:00:00-22:00:00 Thu: 06:00:00-22:00:00 Fri: 06:00:00-23:00:00 Sat: 06:00:00-23:00:00 Sun: 07:00:00-22:00:00","Wireless Hotspot",31.892462061,35.9577993375,0,,
1.354e+10,"28th & Seventh","315 Seventh Avenue",,,"New York",NY,10001-6005,646-336-6462,"Mon: 05:30:00-22:00:00 Tue: 05:30:00-22:00:00 Wed: 05:30:00-22:00:00 Thu: 05:30:00-22:00:00 Fri: 05:30:00-22:00:00 Sat: 07:00:00-22:00:00 Sun: 07:00:00-22:00:00","Wireless Hotspot",32.285330852,35.8981685699,0,,
1.354e+10,"23rd btwn 5th & 6th","14 W. 23rd St",,,"New York",NY,10010-5203,212-367-2050,"Mon: 05:30:00-22:00:00 Tue: 05:30:00-22:00:00 Wed: 05:30:00-22:00:00 Thu: 05:30:00-22:00:00 Fri: 05:30:00-22:00:00 Sat: 07:00:00-22:00:00 Sun: 07:00:00-21:00:00","Wireless Hotspot",31.947299699,35.9171479674,0,,
1.359e+10,"North Merrick","1713 Merrick Avenue",,,"North Merrick",NY,11566-2719,516-771-1904,"Mon: 05:30:00-22:30:00 Tue: 05:30:00-22:30:00 Wed: 05:30:00-22:30:00 Thu: 05:30:00-22:30:00 Fri: 05:30:00-23:00:00 Sat: 05:30:00-23:00:00 Sun: 06:30:00-22:00:00","Wireless Hotspot",31.947942715,35.9265236494,0,,
1.363e+10,"Patchogue, Waverly Plaza","371 North Service Rd","Waverly Plaza",,Patchogue,NY,11772-1905,631-207-2102,"Mon: 05:30:00-22:00:00 Tue: 05:30:00-22:00:00 Wed: 05:30:00-22:00:00 Thu: 05:30:00-22:00:00 Fri: 05:30:00-23:00:00 Sat: 06:00:00-23:00:00 Sun: 06:00:00-22:00:00",,32.022646793,35.8507620086,0,,
1.372e+10,Mattituck,"10095 Main Road",,,Mattituck,NY,11952-1529,6312984563,"Mon: 06:00:00-21:00:00 Tue: 06:00:00-21:00:00 Wed: 06:00:00-21:00:00 Thu: 06:00:00-21:00:00 Fri: 06:00:00-22:00:00 Sat: 06:30:00-22:00:00 Sun: 06:00:00-21:00:00","Wireless Hotspot",32.019914000,35.8616799000,0,,
1.379e+10,"Penn Station LIRR #2","1 Penn Plaza, Concourse level",,,"New York",NY,10119-0002,212-279-1238,"Mon: 05:30:00-00:00:00 Tue: 05:30:00-00:00:00 Wed: 05:30:00-00:00:00 Thu: 05:30:00-00:00:00 Fri: 05:30:00-01:00:00 Sat: 05:30:00-01:00:00 Sun: 05:30:00-00:00:00","Wireless Hotspot",32.273320193,35.8995272618,0,,
1.379e+09,"Target East River Plaza T-2380","517 E 117th St",,,"New York",NY,10035-4409,212-835-0860,"Mon: - Tue: - Wed: - Thu: - Fri: - Sat: - Sun: -",,32.057036723,35.8724279058,0,,
1.398e+10,"Bensonhurst, 1971 86th St.","1971 86th Street",,,Brooklyn,NY,11214-3103,718-266-1503,"Mon: 06:00:00-22:30:00 Tue: 06:00:00-22:30:00 Wed: 06:00:00-22:30:00 Thu: 06:00:00-22:30:00 Fri: 06:00:00-23:00:00 Sat: 06:30:00-23:00:00 Sun: 06:30:00-22:30:00",,32.025658513,35.8506474783,0,,
1.409e+10,"Macy's 5th Floor - Herald Square","151 W. 34th Street",,,"New York",NY,10001-2101,6464731237,"Mon: 00:00:00-00:00:00 Tue: 00:00:00-00:00:00 Wed: 00:00:00-00:00:00 Thu: 00:00:00-00:00:00 Fri: 00:00:00-00:00:00 Sat: 00:00:00-00:00:00 Sun: 00:00:00-00:00:00",,31.984063436,35.8846641205,0,,
1.409e+10,"Macy's 6th Floor - Herald Square","151 W. 34th Street",,,"New York",NY,10001-2101,212-268-3695,"Mon: 00:00:00-00:00:00 Tue: 00:00:00-00:00:00 Wed: 00:00:00-00:00:00 Thu: 00:00:00-00:00:00 Fri: 00:00:00-00:00:00 Sat: 00:00:00-00:00:00 Sun: 00:00:00-00:00:00",,31.978566354,35.9889340609,0,,
1.414e+10,"Westgate Plaza, NY","2110 Chili Ave.","Westgate Plaza",,Rochester,NY,14624-3452,585-426-2290,"Mon: 05:30:00-21:00:00 Tue: 05:30:00-21:00:00 Wed: 05:30:00-21:00:00 Thu: 05:30:00-21:00:00 Fri: 05:30:00-21:00:00 Sat: 05:30:00-21:00:00 Sun: 07:00:00-20:00:00","Wireless Hotspot",32.556670476,35.8636305976,0,,
1.422e+10,"Sunrise Mall","9165 Sunrise Mall","Sunrise Mall",,Massapequa,NY,11758-4370,516-798-0636,"Mon: 09:00:00-21:30:00 Tue: 09:00:00-21:30:00 Wed: 09:00:00-21:30:00 Thu: 09:00:00-21:30:00 Fri: 09:00:00-21:30:00 Sat: 09:00:00-21:30:00 Sun: 10:00:00-18:00:00","Wireless Hotspot",31.993050219,35.8628241630,0,,
1.422e+10,"103rd & Broadway","2690 Broadway",,,"New York",NY,10025-4411,212-531-8204,"Mon: 05:30:00-23:00:00 Tue: 05:30:00-23:00:00 Wed: 05:30:00-23:00:00 Thu: 05:30:00-23:00:00 Fri: 05:30:00-23:00:00 Sat: 06:00:00-23:00:00 Sun: 06:00:00-23:00:00","Wireless Hotspot",32.023349486,35.8672609676,0,,
1.422e+10,"Houston & W. Broadway","482 West Broadway",,,"New York",NY,10012-5333,212-254-0139,"Mon: 06:00:00-21:00:00 Tue: 06:00:00-21:00:00 Wed: 06:00:00-21:00:00 Thu: 06:00:00-21:00:00 Fri: 06:00:00-22:00:00 Sat: 06:30:00-22:00:00 Sun: 06:30:00-21:00:00",,32.016478023,35.8455824485,0,,
1.424e+10,"Horace Harding Blvd., Little Neck","254-41 Horace Harding Expressway",,,"Little Neck",NY,11362-1816,718-428-2489,"Mon: 05:00:00-22:30:00 Tue: 05:00:00-22:30:00 Wed: 05:00:00-22:30:00 Thu: 05:00:00-22:30:00 Fri: 05:00:00-22:30:00 Sat: 05:30:00-22:30:00 Sun: 05:30:00-22:00:00",,32.558056410,36.0063210094,0,,
1.424e+10,"NHL store @ 47th & 6th","1185 Avenue of the Americas",,,"New York",NY,10036-2601,212-730-7645,"Mon: 06:00:00-21:00:00 Tue: 06:00:00-21:00:00 Wed: 06:00:00-21:00:00 Thu: 06:00:00-21:00:00 Fri: 06:00:00-21:00:00 Sat: 07:00:00-21:00:00 Sun: 07:00:00-20:00:00","Wireless Hotspot",31.966805983,35.8838867692,0,,
1.430e+10,"168th & Broadway","4001 Broadway",,,"New York",NY,10032-1508,917-521-0342,"Mon: 05:30:00-23:00:00 Tue: 05:30:00-23:00:00 Wed: 05:30:00-23:00:00 Thu: 05:30:00-23:00:00 Fri: 05:30:00-00:00:00 Sat: 06:00:00-00:00:00 Sun: 06:00:00-23:00:00","Wireless Hotspot",31.933680669,35.9194617691,0,,
1.432e+10,"Jackson Heights, 37th Avenue","78-25 37th Avenue",,,"Jackson Heights",NY,11372-6641,718-457-0875,"Mon: 05:30:00-23:00:00 Tue: 05:30:00-23:00:00 Wed: 05:30:00-23:00:00 Thu: 05:30:00-23:00:00 Fri: 05:30:00-23:00:00 Sat: 06:00:00-23:00:00 Sun: 06:00:00-23:00:00",,31.980037890,35.9247400577,0,,
1.432e+10,"Nassau & Fulton","130 Fulton Street",,,"New York",NY,10038-2504,212-962-0439,"Mon: 05:30:00-21:00:00 Tue: 05:30:00-21:00:00 Wed: 05:30:00-21:00:00 Thu: 05:30:00-21:00:00 Fri: 05:30:00-21:00:00 Sat: 07:00:00-20:00:00 Sun: 07:00:00-20:00:00","Wireless Hotspot",31.957907261,35.9374622492,0,,
1.437e+10,"Tanger Outlets, Deer Park","529 The Arches Circle","The Arches",,"Deer Park",NY,11729-7061,631-242-0802,"Mon: 08:30:00-21:30:00 Tue: 08:30:00-21:30:00 Wed: 08:30:00-21:30:00 Thu: 08:30:00-21:30:00 Fri: 08:30:00-22:30:00 Sat: 08:00:00-22:30:00 Sun: 09:30:00-20:30:00",,31.935982962,35.9166302317,0,,
1.437e+10,"Yonkers, Bronx River Road","841-851 Bronx River Road",,,Yonkers,NY,10708-7058,914-237-3681,"Mon: 05:30:00-22:00:00 Tue: 05:30:00-22:00:00 Wed: 05:30:00-22:00:00 Thu: 05:30:00-22:00:00 Fri: 05:30:00-22:30:00 Sat: 06:00:00-22:30:00 Sun: 06:30:00-21:00:00","Wireless Hotspot",31.921956664,35.9299783119,0,,
1.444e+10,"118th & Frederick Douglas Blvd.","2195 Frederick Douglas Boulevard",,,"New York",NY,10026-0982,212-662-1239,"Mon: 06:00:00-22:00:00 Tue: 06:00:00-22:00:00 Wed: 06:00:00-22:00:00 Thu: 06:00:00-22:00:00 Fri: 06:00:00-23:00:00 Sat: 06:00:00-23:00:00 Sun: 07:00:00-22:00:00","Wireless Hotspot",31.957861048,35.9374103407,0,,
1.444e+10,"19th & Park","240 Park Avenue South",,,"New York",NY,10003-1414,212-375-1415,"Mon: 06:00:00-21:00:00 Tue: 06:00:00-21:00:00 Wed: 06:00:00-21:00:00 Thu: 06:00:00-21:00:00 Fri: 06:00:00-21:00:00 Sat: 07:00:00-19:00:00 Sun: 07:00:00-19:00:00","Wireless Hotspot",32.494899609,35.6943154986,0,,
1.450e+10,"Broadway btwn 87th & 88th","2394 Broadway",,,"New York",NY,10024-1703,212-595-3404,"Mon: 06:00:00-22:00:00 Tue: 06:00:00-22:00:00 Wed: 06:00:00-22:00:00 Thu: 06:00:00-22:00:00 Fri: 06:00:00-22:00:00 Sat: 06:00:00-22:00:00 Sun: 06:00:00-22:00:00","Wireless Hotspot",31.939286698,35.9144233145,0,,
1.460e+10,"125th St. btwn Adam Clayton & FDB","201 W. 125th Street",,,"New York",NY,10027-4466,212-222-2872,"Mon: 06:00:00-22:00:00 Tue: 06:00:00-22:00:00 Wed: 06:00:00-22:00:00 Thu: 06:00:00-22:00:00 Fri: 06:00:00-23:00:00 Sat: 07:00:00-23:00:00 Sun: 07:00:00-22:00:00",,32.350974351,36.1962231415,0,,
1.462e+10,"23rd - 24th & 7th","229 Seventh Avenue",,,"New York",NY,10011-1808,212-255-8750,"Mon: 06:00:00-22:00:00 Tue: 06:00:00-22:00:00 Wed: 06:00:00-22:00:00 Thu: 06:00:00-22:00:00 Fri: 06:00:00-22:30:00 Sat: 06:30:00-22:30:00 Sun: 06:30:00-22:00:00","Wireless Hotspot",32.002858393,35.9654310214,0,,
1.477e+10,"Garden City, Stewart Avenue","581 Stewart Avenue","Stewart Square",,"Garden City",NY,11530-4724,516-683-1537,"Mon: 06:00:00-22:00:00 Tue: 06:00:00-22:00:00 Wed: 06:00:00-22:00:00 Thu: 06:00:00-22:00:00 Fri: 06:00:00-22:00:00 Sat: 06:00:00-22:00:00 Sun: 07:00:00-21:00:00",,31.884529149,35.8915781561,0,,
1.478e+10,"Hicksville, Old Country Rd & Newbri","180 W Old Country Road",,,Hicksville,NY,11801,516-822-2035,"Mon: 05:30:00-22:00:00 Tue: 05:30:00-22:00:00 Wed: 05:30:00-22:00:00 Thu: 05:30:00-22:00:00 Fri: 05:30:00-23:00:00 Sat: 06:00:00-23:00:00 Sun: 07:00:00-21:00:00",,30.202529720,35.7332482548,0,,
1.479e+10,"New City","83 South Main",,,"New City",NY,10956-3511,845-639-5304,"Mon: 06:00:00-21:30:00 Tue: 06:00:00-21:30:00 Wed: 06:00:00-21:30:00 Thu: 06:00:00-21:30:00 Fri: 06:00:00-22:30:00 Sat: 06:00:00-22:30:00 Sun: 07:00:00-21:30:00","Wireless Hotspot",32.002395857,35.9650445039,0,,
1.480e+10,"Nesconset, Smithtown Blvd.","465 Smithtown Blvd.",,,Nesconset,NY,11767-2421,631-979-3093,"Mon: 05:30:00-22:00:00 Tue: 05:30:00-22:00:00 Wed: 05:30:00-22:00:00 Thu: 05:30:00-22:00:00 Fri: 05:30:00-22:30:00 Sat: 06:00:00-22:30:00 Sun: 06:30:00-22:00:00","Wireless Hotspot",30.987275127,35.7816268105,0,,
1.484e+10,"Astoria, 31-01 Broadway","31-01 Broadway",,,Astoria,NY,11106-2648,718-777-1305,"Mon: 05:00:00-23:30:00 Tue: 05:00:00-23:30:00 Wed: 05:00:00-23:30:00 Thu: 05:00:00-23:30:00 Fri: 05:00:00-00:00:00 Sat: 06:00:00-00:00:00 Sun: 06:00:00-23:00:00","Wireless Hotspot",31.997464666,35.9485500880,0,,
1.484e+10,"Church Street & Murray","120 Church Street",,,"New York",NY,10007-2402,212-513-1451,"Mon: 05:30:00-22:00:00 Tue: 05:30:00-22:00:00 Wed: 05:30:00-22:00:00 Thu: 05:30:00-22:00:00 Fri: 05:30:00-22:00:00 Sat: 06:00:00-21:00:00 Sun: 06:00:00-21:00:00",,31.970956035,35.9528134894,0,,
1.521e+10,"Target Colonie T-1268","1440 Central Ave",,,Albany,NY,12205-5118,518-489-1112,"Mon: 08:00:00-22:00:00 Tue: 08:00:00-22:00:00 Wed: 08:00:00-22:00:00 Thu: 08:00:00-22:00:00 Fri: 08:00:00-22:00:00 Sat: 08:00:00-22:00:00 Sun: 08:00:00-21:00:00",,31.901769342,35.8451094866,0,,
1.539e+10,"ARAMARK @ JP Morgan Chase New","270 Park Ave",,,"New York",NY,10017-2014,212-270-2627,"Mon: 07:00:00-17:00:00 Tue: 07:00:00-17:00:00 Wed: 07:00:00-17:00:00 Thu: 07:00:00-17:00:00 Fri: 07:00:00-17:00:00 Sat: 00:00:00-00:00:00 Sun: 00:00:00-00:00:00",,32.552280107,36.0195407568,0,,
1.541e+10,"Target Bay Shore T-1148","838 Sunrise Hwy",,,"Bay Shore",NY,11706-5908,631-969-8958,"Mon: - Tue: - Wed: - Thu: - Fri: - Sat: - Sun: -",,31.904401399,35.8986467991,0,,
1.544e+10,"43rd & Sixth","1101 - 1109 Avenue of the Americas",,,"New York",NY,10036-6706,212-382-3917,"Mon: 05:30:00-23:00:00 Tue: 05:30:00-23:00:00 Wed: 05:30:00-23:00:00 Thu: 05:30:00-23:00:00 Fri: 05:30:00-23:00:00 Sat: 05:30:00-22:00:00 Sun: 05:30:00-22:00:00","Wireless Hotspot",31.933384123,35.9177188533,0,,
1.546e+10,"Jackson Square at Greenwich Ave","122 Greenwich Avenue",,"(space A)","New York",NY,10011-7710,212-366-4672,"Mon: 05:30:00-23:00:00 Tue: 05:30:00-23:00:00 Wed: 05:30:00-23:00:00 Thu: 05:30:00-23:00:00 Fri: 05:30:00-00:00:00 Sat: 06:00:00-00:00:00 Sun: 06:00:00-23:00:00","Wireless Hotspot",31.984103720,35.8843826190,0,,
1.547e+10,"LIU CW Post","720 Northern Blvd",,,Brookfield,NY,11548-1319,516-299-3668,"Mon: - Tue: - Wed: - Thu: - Fri: - Sat: - Sun: -",,31.887588429,35.8635638129,0,,
1.562e+10,"Target South Setauket T-1191","255 Pond Path",,,Centereach,NY,11720-2007,631-580-5356,"Mon: - Tue: - Wed: - Thu: - Fri: - Sat: - Sun: -",,32.540998558,35.8386469861,0,,
1.562e+10,"Target Levittown T-1264","3850 Hempstead Tpke",,,Levittown,NY,11756-1303,516-731-9392,"Mon: - Tue: - Wed: - Thu: - Fri: - Sat: - Sun: -",,32.563364615,36.0073223908,0,,
1.562e+10,"Target Commack T-1108","98 Veterans Memorial Hwy",,,Commack,NY,11725-3432,631-462-8969,"Mon: - Tue: - Wed: - Thu: - Fri: - Sat: - Sun: -",,32.049394605,35.8931407319,0,,
1.569e+10,"69th & First","1281 First Avenue",,,"New York",NY,10021-5583,212-472-1312,"Mon: 05:00:00-22:30:00 Tue: 05:00:00-22:30:00 Wed: 05:00:00-22:30:00 Thu: 05:00:00-22:30:00 Fri: 05:00:00-22:30:00 Sat: 05:30:00-22:30:00 Sun: 05:30:00-22:00:00","Wireless Hotspot",32.061459261,36.0825835727,0,,
1.574e+10,Newburgh,"1282 Route 300",,,Newburgh,NY,12550,845-567-3528,"Mon: 05:30:00-22:00:00 Tue: 05:30:00-22:00:00 Wed: 05:30:00-22:00:00 Thu: 05:30:00-22:00:00 Fri: 05:30:00-22:00:00 Sat: 06:00:00-22:00:00 Sun: 06:00:00-21:00:00","Wireless Hotspot",32.531481029,35.8539775832,0,,
1.575e+10,"W Broadway & Leonard Street","180 West Broadway",,,"New York",NY,10013-2906,2123437402,"Mon: 06:00:00-22:00:00 Tue: 06:00:00-22:00:00 Wed: 06:00:00-22:00:00 Thu: 06:00:00-22:00:00 Fri: 06:00:00-22:00:00 Sat: 07:00:00-21:00:00 Sun: 07:00:00-21:00:00","Wireless Hotspot",32.060955410,36.0819923015,0,,
1.585e+10,"Target Gateway T-1401","519 Gateway Dr",,,Brooklyn,NY,11239-2801,718-235-6032,"Mon: - Tue: - Wed: - Thu: - Fri: - Sat: - Sun: -",,32.033252715,35.8659907104,0,,
1.615e+10,"Macy's-Kings Plaza #6","5400 Avenue U",,,Brooklyn,NY,11234-5204,718-253-3100,"Mon: - Tue: - Wed: - Thu: - Fri: - Sat: - Sun: -",,32.017611632,35.8373208657,0,,
1.626e+10,"3rd St & First Avenue","49 -1/2 First Avenue",,,"New York",NY,10003-9430,2127771752,"Mon: 06:00:00-23:00:00 Tue: 06:00:00-23:00:00 Wed: 06:00:00-23:00:00 Thu: 06:00:00-23:00:00 Fri: 06:00:00-23:00:00 Sat: 06:00:00-23:00:00 Sun: 06:00:00-22:00:00","Wireless Hotspot",31.977419300,35.9444221000,0,,
1.630e+10,Wantagh,"1143 Wantagh Avenue","Willow Wood Shoppes",,Wantagh,NY,11793-2135,5167811538,"Mon: 05:00:00-23:00:00 Tue: 05:00:00-23:00:00 Wed: 05:00:00-23:00:00 Thu: 05:00:00-23:00:00 Fri: 05:00:00-23:00:00 Sat: 06:00:00-23:00:00 Sun: 06:00:00-23:00:00","Wireless Hotspot",32.547114590,35.8614332631,0,,
1.658e+10,"36th St & Sixth Avenue","977 Avenue of the Americas",,,"New York",NY,10018-5436,212-695-2915,"Mon: 06:00:00-22:00:00 Tue: 06:00:00-22:00:00 Wed: 06:00:00-22:00:00 Thu: 06:00:00-22:00:00 Fri: 06:00:00-22:00:00 Sat: 07:00:00-21:30:00 Sun: 07:00:00-21:30:00","Wireless Hotspot",32.025152173,35.8478176531,0,,
1.661e+10,"Fulton @ Adams St","348 Fulton Street","Fulton Mall",,Brooklyn,NY,11201-5109,7184881719,"Mon: 05:30:00-22:30:00 Tue: 05:30:00-22:30:00 Wed: 05:30:00-22:30:00 Thu: 05:30:00-22:30:00 Fri: 05:30:00-22:30:00 Sat: 06:00:00-21:30:00 Sun: 06:00:00-21:30:00","Wireless Hotspot",31.865186400,35.9066333957,0,,
1.663e+10,"John & Water Streets","135 John Street",,,"New York",NY,10038-3524,2123440894,"Mon: 06:00:00-20:00:00 Tue: 06:00:00-20:00:00 Wed: 06:00:00-20:00:00 Thu: 06:00:00-20:00:00 Fri: 06:00:00-20:00:00 Sat: 06:30:00-20:00:00 Sun: 06:30:00-20:00:00","Wireless Hotspot",31.916521368,35.8898501574,0,,
1.663e+10,"26th & Broadway","1140 Broadway",,,"New York",NY,10010-7504,2122136519,"Mon: 05:30:00-22:00:00 Tue: 05:30:00-22:00:00 Wed: 05:30:00-22:00:00 Thu: 05:30:00-22:00:00 Fri: 05:30:00-22:00:00 Sat: 06:00:00-22:00:00 Sun: 06:00:00-22:00:00","Wireless Hotspot",32.048208325,35.8755287120,0,,
1.668e+10,"Port Authority - Concourse lvl","625 Eighth Avenue","Port Authority Bus Terminal",,"New York",NY,10018-1415,212-273-9613,"Mon: 05:30:00-00:00:00 Tue: 05:30:00-00:00:00 Wed: 05:30:00-00:00:00 Thu: 05:30:00-00:00:00 Fri: 05:30:00-00:00:00 Sat: 06:00:00-23:00:00 Sun: 06:00:00-23:00:00","Wireless Hotspot",31.949602946,35.8380409399,0,,
1.692e+10,"Target Ithaca T-1508","40 Catherwood Rd",,,Ithaca,NY,14850-1056,607-257-3387,"Mon: - Tue: - Wed: - Thu: - Fri: - Sat: - Sun: -",,31.987990519,35.9119946318,0,,
1.720e+10,"Queens Blvd & Broadway","86-51 Broadway","Elmhurst Plaza",,Elmurst,NY,11373,7185652021,"Mon: 06:00:00-22:30:00 Tue: 06:00:00-22:30:00 Wed: 06:00:00-22:30:00 Thu: 06:00:00-22:30:00 Fri: 06:00:00-23:00:00 Sat: 06:30:00-23:00:00 Sun: 06:30:00-22:00:00",,31.987997536,35.9117340313,0,,
1.722e+10,"Macy's-Manhasset #5","1100 Northern Blvd",,,Manhasset,NY,11030-3024,516-869-2290,"Mon: - Tue: - Wed: - Thu: - Fri: - Sat: - Sun: -",,32.477654667,35.9029865145,0,,
1.728e+10,"Target Kingston T-1318","1300 Ulster Ave",,,Kingston,NY,12401-1501,,"Mon: - Tue: - Wed: - Thu: - Fri: - Sat: - Sun: -",,32.037916002,36.0777797970,0,,
1.738e+10,"Target Clay T-1475","3857 State Route 31",,,Clay,NY,13041,585-652-5157,"Mon: - Tue: - Wed: - Thu: - Fri: - Sat: - Sun: -",,32.009495144,36.0073013717,0,,
1.742e+10,"Columbus Square @ 100th St","805 Columbus Avenue",,,"New York",NY,10025,2122226582,"Mon: 05:30:00-22:30:00 Tue: 05:30:00-22:30:00 Wed: 05:30:00-22:30:00 Thu: 05:30:00-22:30:00 Fri: 05:30:00-22:30:00 Sat: 06:00:00-23:00:00 Sun: 06:00:00-23:00:00",,31.920444580,35.9253547291,0,,
1.745e+10,"Lexington btwn 24-25th Sts.","50 Lexington Avenue",,,"New York",NY,10010,2122542794,"Mon: 05:30:00-23:00:00 Tue: 05:30:00-23:00:00 Wed: 05:30:00-23:00:00 Thu: 05:30:00-23:00:00 Fri: 05:30:00-23:00:00 Sat: 06:00:00-23:00:00 Sun: 06:00:00-22:00:00","Wireless Hotspot",31.978010100,35.8947159000,0,,
1.748e+10,"58th St btwn Madison & Fifth Aves","600 Madison Avenue",,,"New York",NY,10022,2127591569,"Mon: 06:00:00-22:00:00 Tue: 06:00:00-22:00:00 Wed: 06:00:00-22:00:00 Thu: 06:00:00-22:00:00 Fri: 06:00:00-22:00:00 Sat: 06:00:00-22:00:00 Sun: 06:00:00-22:00:00","Wireless Hotspot",32.541973591,35.7212917800,0,,
1.750e+10,"42nd & Ninth Ave.","350 West 42nd Street",,,"New York",NY,10036,2122444176,"Mon: 06:00:00-22:00:00 Tue: 06:00:00-22:00:00 Wed: 06:00:00-22:00:00 Thu: 06:00:00-22:00:00 Fri: 06:00:00-22:00:00 Sat: 07:00:00-23:00:00 Sun: 07:00:00-22:00:00","Wireless Hotspot",32.551169774,35.8557300201,0,,
1.751e+10,"Macy's 2nd floor - Herald Square","151 W. 34th Street",,,"New York",NY,10001,2122390342,"Mon: 00:00:00-00:00:00 Tue: 00:00:00-00:00:00 Wed: 00:00:00-00:00:00 Thu: 00:00:00-00:00:00 Fri: 00:00:00-00:00:00 Sat: 00:00:00-00:00:00 Sun: 00:00:00-00:00:00","Wireless Hotspot",32.128009545,36.2758384394,0,,
1.773e+10,"Barclays Center","620 Atlantic Avenue",,,Brooklyn,NY,11217,7182300859,"Mon: 06:00:00-22:00:00 Tue: 06:00:00-22:00:00 Wed: 06:00:00-22:00:00 Thu: 06:00:00-22:00:00 Fri: 06:00:00-22:30:00 Sat: 06:00:00-22:30:00 Sun: 06:30:00-21:00:00","Wireless Hotspot",31.976855032,35.9185596913,0,,
1.774e+10,"Sixth Ave (SWC of 53rd St)","1301 Avenue of the Americas",,,"New York",NY,10019,2129740902,"Mon: 05:30:00-23:00:00 Tue: 05:30:00-23:00:00 Wed: 05:30:00-23:00:00 Thu: 05:30:00-23:00:00 Fri: 05:30:00-23:00:00 Sat: 06:00:00-23:00:00 Sun: 06:00:00-23:00:00","Wireless Hotspot",31.997205384,35.8652971843,0,,
1.780e+10,"13th St and First Ave","219 First Avenue",,,"New York",NY,10003,2122540358,"Mon: 06:00:00-22:00:00 Tue: 06:00:00-22:00:00 Wed: 06:00:00-22:00:00 Thu: 06:00:00-22:00:00 Fri: 06:00:00-22:00:00 Sat: 06:00:00-22:00:00 Sun: 06:00:00-22:00:00","Wireless Hotspot",31.960836699,35.9278293553,0,,
1.789e+10,"Target Fairport T-1195","2161 Nine Mile Point Rd",,,Fairport,NY,14450-8509,585-377-0360,"Mon: - Tue: - Wed: - Thu: - Fri: - Sat: - Sun: -",,32.001896262,36.0291887695,0,,
1.801e+10,"Westbury Gallery","914 Old Country Road",,,"Garden City",NY,11530,5162220714,"Mon: 06:00:00-22:00:00 Tue: 06:00:00-22:00:00 Wed: 06:00:00-22:00:00 Thu: 06:00:00-22:00:00 Fri: 06:00:00-23:00:00 Sat: 06:00:00-23:00:00 Sun: 07:00:00-22:00:00","Wireless Hotspot",32.000257400,35.9553491000,0,,
1.803e+09,"Chartwells @ Pace University N","1 Pace Plaza",,,"New York",NY,10038-1502,212-346-1283,"Mon: - Tue: - Wed: - Thu: - Fri: - Sat: - Sun: -",,32.306130566,35.7569021562,0,,
1.812e+10,"Target Glenville T-2805","204 Saratoga Rd",,,Glenville,NY,12302,518-387-3311,"Mon: - Tue: - Wed: - Thu: - Fri: - Sat: - Sun: -",,31.896274458,35.8367768178,0,,
1.851e+10,"63rd St & Lexington Ave","822 Lexington Avenue.",,,"New York",NY,10065,212-572-0984,"Mon: 05:30:00-23:00:00 Tue: 05:30:00-23:00:00 Wed: 05:30:00-23:00:00 Thu: 05:30:00-23:00:00 Fri: 05:30:00-23:00:00 Sat: 06:00:00-22:00:00 Sun: 06:00:00-22:00:00",,32.467820388,36.2423912194,0,,
1.856e+10,"Syracuse University, Campus West Ho","150 Henry Street",,"Campus West Housing",Syracuse,NY,13244,315-443-2216,"Mon: - Tue: - Wed: - Thu: - Fri: - Sat: - Sun: -",,31.939542660,35.9157126482,0,,
1.858e+10,"Target Valley Stream T-2840","500 W. Sunrise Hwy",,,"Valley Stream",NY,11581,516-568-9264,"Mon: - Tue: - Wed: - Thu: - Fri: - Sat: - Sun: -",,32.178249208,36.3039189660,0,,
1.875e+10,"SUNY Stony Brook Roth Cafe","250 Student Union Bldg.",,"1st Floor","Stony Brook",NY,11794,,"Mon: - Tue: - Wed: - Thu: - Fri: - Sat: - Sun: -",,31.101964541,35.6975022007,0,,
1.878e+10,"Manhattan Mall 1st Floor","100 W 33rd St","Manhattan Mall",,"New York",NY,10001,2126954260,"Mon: 07:00:00-21:00:00 Tue: 07:00:00-21:00:00 Wed: 07:00:00-21:00:00 Thu: 07:00:00-21:00:00 Fri: 07:00:00-22:00:00 Sat: 08:00:00-22:00:00 Sun: 09:00:00-20:00:00","Wireless Hotspot",32.309420737,36.3053843662,0,,
1.886e+10,"28th St & Third Ave","393 Third Ave",,,"New York",NY,10016,212-481-4690,"Mon: 06:00:00-22:00:00 Tue: 06:00:00-22:00:00 Wed: 06:00:00-22:00:00 Thu: 06:00:00-22:00:00 Fri: 06:00:00-23:00:00 Sat: 06:00:00-23:00:00 Sun: 07:00:00-22:00:00","Wireless Hotspot",32.121727841,36.2688899186,0,,
1.920e+10,"Tottenville (SI)","106 Page Avenue","Richmond Valley Plaza",,"Staten Island",NY,10309,718-356-1090,"Mon: 05:30:00-23:00:00 Tue: 05:30:00-23:00:00 Wed: 05:30:00-23:00:00 Thu: 05:30:00-23:00:00 Fri: 05:30:00-00:00:00 Sat: 06:00:00-00:00:00 Sun: 06:30:00-23:00:00","Wireless Hotspot",32.063506548,36.0720033503,0,,
1.955e+10,"164 Park Place","164 Park Place",,,Brooklyn,NY,11217,718-623-9419,"Mon: 05:00:00-23:00:00 Tue: 05:00:00-23:00:00 Wed: 05:00:00-23:00:00 Thu: 05:00:00-23:00:00 Fri: 05:00:00-23:00:00 Sat: 05:30:00-23:00:00 Sun: 06:00:00-23:00:00","Wireless Hotspot",32.010145196,36.0020371620,0,,
2.783e+08,"Bethpage, Stewart Avenue","205 Stewart Ave",,,Bethpage,NY,11714-5345,516-520-0698,"Mon: 05:30:00-23:00:00 Tue: 05:30:00-23:00:00 Wed: 05:30:00-23:00:00 Thu: 05:30:00-23:00:00 Fri: 05:30:00-00:00:00 Sat: 06:00:00-00:00:00 Sun: 06:00:00-23:00:00","Wireless Hotspot",31.952967490,35.9266417045,0,,
2.784e+08,"Commack, Crooked Hill","125 Crooked Hill Road",,,Commack,NY,11725-5429,631-858-0167,"Mon: 06:00:00-22:00:00 Tue: 06:00:00-22:00:00 Wed: 06:00:00-22:00:00 Thu: 06:00:00-22:00:00 Fri: 06:00:00-22:00:00 Sat: 07:00:00-22:00:00 Sun: 07:00:00-21:00:00","Wireless Hotspot",31.856875002,35.9695998312,0,,
2.785e+08,"53rd & Sixth","1330 6th Ave.",,,"New York",NY,10019,212-969-9066,"Mon: 05:30:00-21:00:00 Tue: 05:30:00-21:00:00 Wed: 05:30:00-21:00:00 Thu: 05:30:00-21:00:00 Fri: 05:30:00-22:00:00 Sat: 06:00:00-21:00:00 Sun: 06:00:00-21:00:00","Wireless Hotspot",32.309746259,36.2946975790,0,,
2.786e+08,"47th & Eighth","770 Eighth Ave",,,"New York",NY,10036-7017,212-830-9002,"Mon: 06:00:00-23:30:00 Tue: 06:00:00-23:30:00 Wed: 06:00:00-23:30:00 Thu: 06:00:00-23:30:00 Fri: 06:00:00-00:00:00 Sat: 06:00:00-00:00:00 Sun: 06:30:00-23:30:00","Wireless Hotspot",32.073029289,35.8424369819,0,,
2.787e+08,"Queens Center Mall","90-15 Queens Boulevard","Queens Center Mall",K203,Elmhurst,NY,11373-4900,718-699-7856,"Mon: 08:30:00-22:00:00 Tue: 08:30:00-22:00:00 Wed: 08:30:00-22:00:00 Thu: 08:30:00-22:00:00 Fri: 08:30:00-22:00:00 Sat: 09:00:00-22:00:00 Sun: 10:00:00-21:00:00",,31.951295270,35.9481225598,0,,
27883042,"Perinton Square, COB","6720 Pittsford-Palmyra Rd",,,Fairport,NY,14450-3342,585-223-4240,"Mon: 05:30:00-20:30:00 Tue: 05:30:00-20:30:00 Wed: 05:30:00-20:30:00 Thu: 05:30:00-20:30:00 Fri: 05:30:00-21:00:00 Sat: 06:00:00-21:00:00 Sun: 06:30:00-18:00:00","Wireless Hotspot",31.977460252,35.9614948796,0,,
2.790e+08,"Downtown Scarsdale","51 East Parkway",,,Scarsdale,NY,10583-4155,914-722-2569,"Mon: 05:00:00-21:00:00 Tue: 05:00:00-21:00:00 Wed: 05:00:00-21:00:00 Thu: 05:00:00-21:00:00 Fri: 05:00:00-22:00:00 Sat: 06:00:00-22:00:00 Sun: 06:00:00-21:00:00","Wireless Hotspot",31.061096218,35.6994146745,0,,
2.865e+08,"75th & 3rd, Bay Ridge","7419 3rd Avenue",,,Brooklyn,NY,11209-2407,718-836-3882,"Mon: 05:30:00-22:00:00 Tue: 05:30:00-22:00:00 Wed: 05:30:00-22:00:00 Thu: 05:30:00-22:00:00 Fri: 05:30:00-23:30:00 Sat: 06:30:00-23:30:00 Sun: 06:30:00-22:00:00","Wireless Hotspot",31.902603313,35.8436802863,0,,
2.880e+08,Ossining,"216 South Highland Avenue",,,Ossining,NY,10562-6102,914-923-0279,"Mon: 05:30:00-22:00:00 Tue: 05:30:00-22:00:00 Wed: 05:30:00-22:00:00 Thu: 05:30:00-22:00:00 Fri: 05:30:00-22:00:00 Sat: 06:30:00-22:00:00 Sun: 06:30:00-21:30:00","Wireless Hotspot",32.010494060,36.0020024058,0,,
2.954e+08,Jamestown,"944 Fairmount Avenue",,,Jamestown,NY,14701-2453,716-664-0967,"Mon: 06:00:00-22:00:00 Tue: 06:00:00-22:00:00 Wed: 06:00:00-22:00:00 Thu: 06:00:00-22:00:00 Fri: 06:00:00-22:00:00 Sat: 06:00:00-22:00:00 Sun: 06:00:00-22:00:00","Wireless Hotspot",32.555086658,35.8604640889,0,,
3.422e+08,"West 23rd and 8th","300 W 23rd St.",,,"New York",NY,10011-2210,646-638-1571,"Mon: 05:30:00-23:00:00 Tue: 05:30:00-23:00:00 Wed: 05:30:00-23:00:00 Thu: 05:30:00-23:00:00 Fri: 05:30:00-00:00:00 Sat: 06:00:00-00:00:00 Sun: 06:00:00-23:00:00","Wireless Hotspot",31.045090410,35.7106194333,0,,
3.439e+08,"Brighton Beach","607 Brighton Beach Avenue",,,Brooklyn,NY,11235-6405,718-934-3211,"Mon: 06:00:00-23:30:00 Tue: 06:00:00-23:30:00 Wed: 06:00:00-23:30:00 Thu: 06:00:00-23:30:00 Fri: 06:00:00-23:30:00 Sat: 06:00:00-00:00:00 Sun: 06:30:00-23:00:00","Wireless Hotspot",32.542152974,36.0095166360,0,,
3.467e+08,"White Plains Renaissance Plaza","200 Main Street",,,"White Plains",NY,10601-3203,914-682-1738,"Mon: 05:30:00-22:00:00 Tue: 05:30:00-22:00:00 Wed: 05:30:00-22:00:00 Thu: 05:30:00-22:00:00 Fri: 05:30:00-23:00:00 Sat: 06:00:00-23:00:00 Sun: 06:00:00-22:00:00","Wireless Hotspot",32.637634314,35.8309883693,0,,
3.503e+09,"ALB Concourse B Times Square","737 Albany-Shaker Road",,,Albany,NY,12211-1000,"(518) 242-4333","Mon: 05:00:00-20:00:00 Tue: 05:00:00-20:00:00 Wed: 05:00:00-20:00:00 Thu: 05:00:00-20:00:00 Fri: 05:00:00-20:00:00 Sat: 05:00:00-20:00:00 Sun: 05:00:00-20:00:00","Wireless Hotspot",31.929149911,35.9032390153,0,,
3.863e+09,"Target Bronx Terminal T-2475","700 Exterior St",,,Bronx,NY,10451-2042,"(718) 401-5651","Mon: 07:00:00-21:00:00 Tue: 07:00:00-21:00:00 Wed: 07:00:00-21:00:00 Thu: 07:00:00-21:00:00 Fri: 07:00:00-21:00:00 Sat: 07:00:00-21:00:00 Sun: 07:00:00-21:00:00",,32.616604122,35.7663728027,0,,
3.869e+09,"Target Chili T-2528","3181 Chili Ave",,,Rochester,NY,14624-5409,"(585) 571-3979","Mon: 07:00:00-19:00:00 Tue: 07:00:00-19:00:00 Wed: 07:00:00-19:00:00 Thu: 07:00:00-19:00:00 Fri: 07:00:00-19:00:00 Sat: 07:00:00-19:00:00 Sun: 07:00:00-19:00:00",,32.039371773,36.1036620325,0,,
3.928e+09,"St. John's University - Queens","8000 Utopia Pkwy",,,Jamaica,NY,11432,718-990-1716,"Mon: 06:00:00-20:30:00 Tue: 06:00:00-20:30:00 Wed: 06:00:00-20:30:00 Thu: 06:00:00-20:30:00 Fri: 06:00:00-20:30:00 Sat: 07:00:00-19:00:00 Sun: 07:00:00-16:00:00",,32.531548234,35.8387092041,0,,
5.032e+09,"SUNY Oneonta","81 Ravine Pkwy",,"Hunt Student Union",Oneonta,NY,13820-2625,607-436-2439,"Mon: 07:30:00-21:00:00 Tue: 07:30:00-21:00:00 Wed: 07:30:00-21:00:00 Thu: 07:30:00-21:00:00 Fri: 07:30:00-21:00:00 Sat: 09:00:00-21:00:00 Sun: 12:00:00-21:00:00","Wireless Hotspot",32.344790904,36.2080688100,0,,
5.073e+08,"Fashion Inst of Technology","227 W 27th St",,,"New York",NY,10001,212-217-5772,"Mon: 06:00:00-20:00:00 Tue: 06:00:00-20:00:00 Wed: 06:00:00-20:00:00 Thu: 06:00:00-20:00:00 Fri: 06:00:00-20:00:00 Sat: 00:00:00-00:00:00 Sun: 00:00:00-00:00:00","Wireless Hotspot",31.954541154,35.9411149693,0,,
5.114e+09,"96th & Lexington Ave","1491 Lexington Avenue",,,"New York",NY,10029-7307,212-369-0313,"Mon: 05:30:00-23:00:00 Tue: 05:30:00-23:00:00 Wed: 05:30:00-23:00:00 Thu: 05:30:00-23:00:00 Fri: 05:30:00-23:00:00 Sat: 05:30:00-23:00:00 Sun: 06:00:00-23:00:00","Wireless Hotspot",32.562454534,35.8537724976,0,,
7.003e+10,"JFK T7 Gate 7","NY JFK International Airport Delta Termi",,,Jamaica,NY,11430,718-425-5679,"Mon: - Tue: - Wed: - Thu: - Fri: - Sat: - Sun: -",,32.335717970,36.2032561585,0,,
7.006e+10,"JFK T7 Pre Security Ticketing","NY JFK International Airport Delta Termi",,,Jamaica,NY,11430,718-656-8010,"Mon: - Tue: - Wed: - Thu: - Fri: - Sat: - Sun: -",,31.939277054,35.9442662701,0,,
7.008e+10,"NY Chittenango Travel Plaza","2188 Tag Rd",,,Canastota,NY,13032-4561,315-687-0015,"Mon: 06:00:00-21:00:00 Tue: 06:00:00-21:00:00 Wed: 06:00:00-21:00:00 Thu: 06:00:00-21:00:00 Fri: 06:00:00-21:00:00 Sat: 06:00:00-21:00:00 Sun: 06:00:00-21:00:00","Wireless Hotspot",31.982145571,35.9895922496,0,,
7.009e+10,"Target Amsterdam T-2461","4930 State Hwy 30",,,Amsterdam,NY,12010-7520,518-770-7180,"Mon: 08:00:00-21:00:00 Tue: 08:00:00-21:00:00 Wed: 08:00:00-21:00:00 Thu: 08:00:00-21:00:00 Fri: 08:00:00-21:00:00 Sat: 08:00:00-21:00:00 Sun: 08:00:00-20:00:00",,30.202630878,35.7244529396,0,,
7.032e+10,"SUNY Stony Brook University Ho","101 Nicholls Rd",,,"Stony Brook",NY,11794,631-444-7356,"Mon: 06:30:00-00:00:00 Tue: 06:30:00-00:00:00 Wed: 06:30:00-02:00:00 Thu: 06:30:00-00:30:00 Fri: 06:30:00-00:30:00 Sat: 07:00:00-00:00:00 Sun: 07:00:00-00:00:00","Wireless Hotspot",32.640700729,35.9886673913,0,,
7203550,"Port Washington","72 Main Street",,,"Port Washington",NY,11050-2821,"(516) 944-5082","Mon: 05:30:00-22:00:00 Tue: 05:30:00-22:00:00 Wed: 05:30:00-22:00:00 Thu: 05:30:00-22:00:00 Fri: 05:30:00-23:00:00 Sat: 06:00:00-23:00:00 Sun: 06:00:00-22:00:00","Wireless Hotspot",31.927598275,35.9035079813,0,,
7207707,"Hylan Commons","2530 Hylan Blvd",,,"Staten Island",NY,10306-4338,718-979-8608,"Mon: 05:30:00-23:00:00 Tue: 05:30:00-23:00:00 Wed: 05:30:00-23:00:00 Thu: 05:30:00-23:00:00 Fri: 05:30:00-23:00:00 Sat: 05:30:00-23:00:00 Sun: 05:30:00-23:00:00","Wireless Hotspot",30.202050043,35.7276258640,0,,
7209548,Wykagyl,"1278-80 North Avenue",,,"New Rochelle",NY,10804-2603,914-654-8651,"Mon: 05:30:00-21:30:00 Tue: 05:30:00-21:30:00 Wed: 05:30:00-21:30:00 Thu: 05:30:00-21:30:00 Fri: 05:30:00-21:30:00 Sat: 06:00:00-22:00:00 Sun: 06:30:00-21:30:00","Wireless Hotspot",31.971985773,35.9219383239,0,,
7210551,"Port Jefferson","201 Main Street",,"Unit C","Port Jefferson",NY,11777-1696,631-476-3791,"Mon: 05:30:00-22:00:00 Tue: 05:30:00-22:00:00 Wed: 05:30:00-22:00:00 Thu: 05:30:00-22:00:00 Fri: 05:30:00-23:00:00 Sat: 05:30:00-23:00:00 Sun: 06:00:00-22:00:00","Wireless Hotspot",32.563616070,35.8632201102,0,,
7215593,"1585 Broadway (47th)","1585 Broadway",,,"New York",NY,10036-8200,"(212) 541-7515","Mon: 06:00:00-01:00:00 Tue: 06:00:00-01:00:00 Wed: 06:00:00-01:00:00 Thu: 06:00:00-01:00:00 Fri: 06:00:00-02:00:00 Sat: 06:00:00-02:00:00 Sun: 06:00:00-01:00:00","Wireless Hotspot",31.033149307,35.7254645544,0,,
7216592,"87th & Lexington","120 EAST 87TH ST",,,"New York",NY,10128-1116,212-426-2580,"Mon: 05:30:00-23:00:00 Tue: 05:30:00-23:00:00 Wed: 05:30:00-23:00:00 Thu: 05:30:00-23:00:00 Fri: 05:30:00-00:00:00 Sat: 06:00:00-00:00:00 Sun: 06:00:00-23:00:00","Wireless Hotspot",31.983600657,35.9994322396,0,,
7217623,"Forest Hills (B&N)","7000 Austin Street",,,"Forest Hills",NY,11375-1022,718-268-4719,"Mon: 06:30:00-22:00:00 Tue: 06:30:00-22:00:00 Wed: 06:30:00-22:00:00 Thu: 06:30:00-22:00:00 Fri: 06:30:00-23:30:00 Sat: 06:30:00-23:30:00 Sun: 06:30:00-22:00:00","Wireless Hotspot",32.356527852,36.2081277579,0,,
7.220e+09,"Woodbury Village","7963 Jericho Turnpike","Woodbury Village",,Woodbury,NY,11797-1210,5169212878,"Mon: 05:30:00-22:00:00 Tue: 05:30:00-22:00:00 Wed: 05:30:00-22:00:00 Thu: 05:30:00-22:00:00 Fri: 05:30:00-23:00:00 Sat: 05:30:00-23:00:00 Sun: 06:30:00-22:00:00","Wireless Hotspot",30.189574493,35.7173671830,0,,
7222594,"330 Madison","330 Madison Ave",,,"New York",NY,10017-5001,212-682-1880,"Mon: 05:30:00-22:00:00 Tue: 05:30:00-22:00:00 Wed: 05:30:00-22:00:00 Thu: 05:30:00-22:00:00 Fri: 05:30:00-22:00:00 Sat: 06:00:00-22:00:00 Sun: 06:00:00-22:00:00","Wireless Hotspot",31.943179338,35.9663743976,0,,
7225549,Scarsdale/Midway,"975B Central Park Avenue",,,Scarsdale,NY,10583-3211,"(914) 472-2259","Mon: 06:30:00-22:00:00 Tue: 06:30:00-22:00:00 Wed: 06:30:00-22:00:00 Thu: 06:30:00-22:00:00 Fri: 06:30:00-22:00:00 Sat: 06:30:00-22:00:00 Sun: 06:30:00-22:00:00","Wireless Hotspot",31.915532194,35.9337154833,0,,
7235643,Jericho,"475 North Broadway",,,Jericho,NY,11753-2106,"(516) 433-4611","Mon: 06:00:00-22:00:00 Tue: 06:00:00-22:00:00 Wed: 06:00:00-22:00:00 Thu: 06:00:00-22:00:00 Fri: 06:00:00-22:30:00 Sat: 06:00:00-22:30:00 Sun: 07:00:00-22:00:00","Wireless Hotspot",32.334195677,36.2031834538,0,,
7238645,"1372 Broadway","1372 Broadway",,,"New York",NY,10018-6107,"(212) 921-0827","Mon: 06:00:00-21:00:00 Tue: 06:00:00-21:00:00 Wed: 06:00:00-21:00:00 Thu: 06:00:00-21:00:00 Fri: 06:00:00-21:00:00 Sat: 08:00:00-21:00:00 Sun: 08:00:00-21:00:00","Wireless Hotspot",32.566049103,36.0085947335,0,,
7.243e+08,"New Baltimore Travel Plaza","Mile Marker 127 South-NY State Thruway","New Baltimore Travel Plaza",,Hannacroix,NY,12087,518-756-3000,"Mon: 06:00:00-22:00:00 Tue: 06:00:00-22:00:00 Wed: 06:00:00-22:00:00 Thu: 06:00:00-22:00:00 Fri: 06:00:00-22:00:00 Sat: 06:00:00-22:00:00 Sun: 06:00:00-22:00:00","Wireless Hotspot",31.245815006,36.0449372971,0,,
7.244e+08,"Sloatsburg Travel Plaza","MM-33 N",,,Sloatsburg,NY,10974,845-753-2701,"Mon: 06:00:00-22:00:00 Tue: 06:00:00-22:00:00 Wed: 06:00:00-22:00:00 Thu: 06:00:00-22:00:00 Fri: 06:00:00-22:00:00 Sat: 06:00:00-22:00:00 Sun: 06:00:00-22:00:00","Wireless Hotspot",31.902087421,35.9615296065,0,,
7244646,"Battery Park Plaza","1 Battery Park Plaza",,,"New York",NY,10004-1405,2124821180,"Mon: 05:30:00-21:00:00 Tue: 05:30:00-21:00:00 Wed: 05:30:00-21:00:00 Thu: 05:30:00-21:00:00 Fri: 05:30:00-21:00:00 Sat: 06:30:00-20:30:00 Sun: 06:30:00-20:30:00","Wireless Hotspot",32.333882517,36.2050295053,0,,
7245595,"57th btwn 8th & 9th","322 West 57th Street",,,"New York",NY,10019-3701,"(212) 399-0714","Mon: 05:30:00-22:00:00 Tue: 05:30:00-22:00:00 Wed: 05:30:00-22:00:00 Thu: 05:30:00-22:00:00 Fri: 05:30:00-22:00:00 Sat: 06:00:00-22:00:00 Sun: 06:00:00-22:00:00","Wireless Hotspot",31.995849802,35.8407449432,0,,
7246553,Manhasset,"375 Plandome Road",,,Manhasset,NY,11030-1940,"(516) 869-9608","Mon: 05:30:00-22:00:00 Tue: 05:30:00-22:00:00 Wed: 05:30:00-22:00:00 Thu: 05:30:00-22:00:00 Fri: 05:30:00-22:00:00 Sat: 06:00:00-22:00:00 Sun: 06:30:00-21:30:00","Wireless Hotspot",32.557937396,35.8454432929,0,,
7247758,Uniondale,"1228 Hempstead Turnpike",,,Uniondale,NY,11553-1245,"(516) 565-9886","Mon: 06:00:00-23:00:00 Tue: 06:00:00-23:00:00 Wed: 06:00:00-23:00:00 Thu: 06:00:00-23:00:00 Fri: 06:00:00-23:00:00 Sat: 06:00:00-23:00:00 Sun: 07:00:00-22:00:00","Wireless Hotspot",32.060130491,35.8766505001,0,,
7248839,"The Sands (Oceanside)","3549A Long Beach Road","The Sands Shopping Center",,Oceanside,NY,11572-5700,"(516) 536-4363","Mon: 06:00:00-21:30:00 Tue: 06:00:00-21:30:00 Wed: 06:00:00-21:30:00 Thu: 06:00:00-21:30:00 Fri: 06:00:00-22:30:00 Sat: 06:30:00-22:30:00 Sun: 07:00:00-21:00:00","Wireless Hotspot",31.890183755,36.0410147021,0,,
7255694,"8th & 16th","124 Eighth Avenue",,,"New York",NY,10011-5108,"(212) 462-2020","Mon: 05:30:00-00:00:00 Tue: 05:30:00-00:00:00 Wed: 05:30:00-00:00:00 Thu: 05:30:00-00:00:00 Fri: 05:30:00-00:00:00 Sat: 07:00:00-00:00:00 Sun: 07:00:00-00:00:00","Wireless Hotspot",30.520595922,35.5550291382,0,,
7.257e+10,"Stop & Shop-Port Washington #5","65 Shore Road",,,"Port Washington",NY,11050-2227,516-767-6912,"Mon: 06:00:00-21:30:00 Tue: 06:00:00-22:00:00 Wed: 06:00:00-22:00:00 Thu: 06:00:00-22:00:00 Fri: 06:00:00-22:00:00 Sat: 06:00:00-22:00:00 Sun: 06:00:00-22:00:00",,31.983746092,35.9993168757,0,,
7261784,"Greenwich Avenue","93 Greenwich Avenue",,,"New York",NY,10014-5203,"(212) 462-4697","Mon: 05:30:00-22:00:00 Tue: 05:30:00-22:00:00 Wed: 05:30:00-22:00:00 Thu: 05:00:00-22:00:00 Fri: 05:30:00-22:00:00 Sat: 06:30:00-22:00:00 Sun: 06:30:00-21:00:00","Wireless Hotspot",30.200882895,35.7373136025,0,,
7263890,"43rd & 8th","684 Eighth Avenue",,,"New York",NY,10036-7114,"(212) 398-9702","Mon: 05:30:00-23:00:00 Tue: 05:30:00-23:00:00 Wed: 05:30:00-23:00:00 Thu: 05:30:00-23:00:00 Fri: 05:30:00-23:00:00 Sat: 06:00:00-00:00:00 Sun: 06:00:00-23:00:00","Wireless Hotspot",32.065225369,36.0796404650,0,,
7273984,"42nd & 6th","1100 Avenue of the Americas",,,"New York",NY,10036-6712,"(212) 398-4508","Mon: 05:30:00-23:00:00 Tue: 05:30:00-23:00:00 Wed: 05:30:00-23:00:00 Thu: 05:30:00-23:00:00 Fri: 05:30:00-23:00:00 Sat: 07:00:00-23:00:00 Sun: 07:30:00-22:00:00","Wireless Hotspot",32.350326083,36.2078907822,0,,
7277986,"23rd & Park","304 Park Avenue South",,,"New York",NY,10010-4301,"(212) 475-9025","Mon: 05:30:00-21:30:00 Tue: 05:30:00-21:30:00 Wed: 05:30:00-21:30:00 Thu: 05:30:00-21:30:00 Fri: 05:30:00-21:30:00 Sat: 07:00:00-21:30:00 Sun: 07:00:00-21:30:00","Wireless Hotspot",32.025933597,35.8454728011,0,,
7278601,Larchmont,"1929 Palmer Avenue",,A2,Larchmont,NY,10538-2403,"(914) 834-6863","Mon: 05:30:00-21:30:00 Tue: 05:30:00-21:30:00 Wed: 05:30:00-21:30:00 Thu: 05:30:00-21:30:00 Fri: 05:30:00-22:00:00 Sat: 06:00:00-22:00:00 Sun: 06:00:00-21:00:00","Wireless Hotspot",32.539701210,36.0046310128,0,,
7282987,"49th & 7th","750 Seventh Avenue",,,"New York",NY,10019-6834,"(212) 974-0032","Mon: 05:30:00-00:00:00 Tue: 05:30:00-00:00:00 Wed: 05:30:00-00:00:00 Thu: 05:30:00-00:00:00 Fri: 05:30:00-00:00:00 Sat: 06:00:00-00:00:00 Sun: 07:00:00-22:00:00","Wireless Hotspot",32.435872466,35.8940710616,0,,
72851073,"22nd St. & Sixth Ave.","684 Avenue of the Americas",,,"New York",NY,10010-5110,"(212) 691-1948","Mon: 05:30:00-22:00:00 Tue: 05:30:00-22:00:00 Wed: 05:30:00-22:00:00 Thu: 05:30:00-22:00:00 Fri: 05:30:00-23:00:00 Sat: 07:00:00-23:00:00 Sun: 07:00:00-22:00:00","Wireless Hotspot",32.068637702,36.0876412216,0,,
72941052,Pittsford,"5 State Street",,,Pittsford,NY,14534-2027,585-586-8290,"Mon: 05:30:00-22:00:00 Tue: 05:30:00-22:00:00 Wed: 05:30:00-22:00:00 Thu: 05:30:00-22:00:00 Fri: 05:30:00-23:00:00 Sat: 06:00:00-23:00:00 Sun: 06:00:00-22:00:00","Wireless Hotspot",32.057325732,35.8874387061,0,,
72961042,"Fresh Meadows","61-51 188th Street",,,"Fresh Meadows",NY,11365-2712,"(718) 264-0658","Mon: 05:30:00-22:30:00 Tue: 05:30:00-22:30:00 Wed: 05:30:00-22:30:00 Thu: 05:30:00-22:30:00 Fri: 05:30:00-23:00:00 Sat: 06:00:00-23:00:00 Sun: 06:30:00-22:00:00","Wireless Hotspot",32.136822395,36.1294593736,0,,
7302555,Merrick,"2015 Merrick Road",LaBoutique,,Merrick,NY,11566-4644,"(516) 379-7467","Mon: 05:30:00-22:00:00 Tue: 05:30:00-22:00:00 Wed: 05:30:00-22:00:00 Thu: 05:30:00-22:00:00 Fri: 05:30:00-22:30:00 Sat: 06:00:00-22:30:00 Sun: 06:30:00-21:30:00","Wireless Hotspot",31.929233926,35.9031206184,0,,
73031250,"Vernon Hills","684 White Plains Road",,,Scarsdale,NY,10583,"(914) 472-1313","Mon: 06:00:00-22:00:00 Tue: 06:00:00-22:00:00 Wed: 06:00:00-22:00:00 Thu: 06:00:00-22:00:00 Fri: 06:00:00-22:00:00 Sat: 06:00:00-22:00:00 Sun: 06:00:00-22:00:00","Wireless Hotspot",31.887682099,36.0128082814,0,,
73041172,Ardsley,"716-718 Saw Mill Road","Village Green",,Ardsley,NY,10502-1817,"(914) 693-5706","Mon: 06:00:00-22:00:00 Tue: 06:00:00-22:00:00 Wed: 06:00:00-22:00:00 Thu: 06:00:00-22:00:00 Fri: 06:00:00-23:00:00 Sat: 06:00:00-23:00:00 Sun: 06:00:00-22:00:00","Wireless Hotspot",30.197220511,35.7340559595,0,,
73071088,"Massapequa Village Square","4301 Merrick Road",,,Massapequa,NY,11758-6018,"(516) 797-8691","Mon: 05:00:00-22:30:00 Tue: 05:00:00-22:30:00 Wed: 05:00:00-22:30:00 Thu: 05:00:00-22:30:00 Fri: 05:00:00-23:00:00 Sat: 05:30:00-23:00:00 Sun: 05:30:00-22:00:00","Wireless Hotspot",32.340730427,36.2014501936,0,,
73101051,"Mt. Hope","1380 Mount Hope Avenue",,,Rochester,NY,14620-3911,585-271-7330,"Mon: 05:30:00-20:00:00 Tue: 05:30:00-20:00:00 Wed: 05:30:00-20:00:00 Thu: 05:30:00-20:00:00 Fri: 05:30:00-20:00:00 Sat: 05:30:00-20:00:00 Sun: 06:00:00-19:30:00","Wireless Hotspot",32.065756993,36.0854287110,0,,
73151049,"Twelve Corners","1914 Monroe Avenue","Twelve Corners Shopping Center",,Brighton,NY,14618-1919,585-442-6410,"Mon: 05:30:00-21:30:00 Tue: 05:30:00-21:30:00 Wed: 05:30:00-21:30:00 Thu: 05:30:00-21:30:00 Fri: 05:30:00-22:00:00 Sat: 05:30:00-22:00:00 Sun: 05:30:00-21:00:00","Wireless Hotspot",32.272415632,35.8852571632,0,,
73161190,"31st & 7th","370 7th Avenue",,,"New York",NY,10001-3967,"(212) 967-2041","Mon: 05:30:00-23:00:00 Tue: 05:30:00-23:00:00 Wed: 05:30:00-23:00:00 Thu: 05:30:00-23:00:00 Fri: 05:30:00-23:00:00 Sat: 06:00:00-23:00:00 Sun: 06:00:00-22:00:00","Wireless Hotspot",32.334561188,36.2107683358,0,,
73171191,"73rd & Columbus","267-275 Columbus Ave",,,"New York",NY,10023-2904,"(212) 579-7834","Mon: 05:30:00-21:00:00 Tue: 05:30:00-21:00:00 Wed: 05:30:00-21:00:00 Thu: 05:30:00-21:00:00 Fri: 05:30:00-21:00:00 Sat: 06:00:00-21:00:00 Sun: 06:00:00-21:00:00","Wireless Hotspot",31.927212115,35.9380234396,0,,
73181048,"The Commons, Buffalo Univ.","520 Lee Entrance","The Commons - Buffalo University",,Amherst,NY,14228-2567,"(716) 636-3607","Mon: 06:30:00-23:00:00 Tue: 06:30:00-23:00:00 Wed: 06:30:00-23:00:00 Thu: 06:30:00-23:00:00 Fri: 06:30:00-23:00:00 Sat: 07:00:00-22:30:00 Sun: 07:00:00-22:30:00","Wireless Hotspot",31.973326092,35.9497144239,0,,
7326597,Chappaqua,"2 South Greeley Avenue",,,Chappaqua,NY,10514-3311,"(914) 238-2268","Mon: 05:30:00-22:00:00 Tue: 05:30:00-22:00:00 Wed: 05:30:00-22:00:00 Thu: 05:30:00-22:00:00 Fri: 05:30:00-23:00:00 Sat: 06:00:00-23:00:00 Sun: 06:30:00-22:00:00","Wireless Hotspot",32.036978745,35.7270984660,0,,
7327676,"Niagara Blvd","1703 Niagara Falls Boulevard",,,Amherst,NY,14228-2705,"(716) 836-8720","Mon: 05:00:00-23:00:00 Tue: 05:00:00-23:00:00 Wed: 05:00:00-23:00:00 Thu: 05:00:00-23:00:00 Fri: 05:00:00-23:00:00 Sat: 05:00:00-23:00:00 Sun: 05:30:00-23:00:00","Wireless Hotspot",32.329208666,36.1874313431,0,,
7331918,"Wheatly Plaza-Greenvale","132 Wheatley Plaza",,,Greenvale,NY,11548-1316,"(516) 484-9146","Mon: 06:00:00-22:00:00 Tue: 06:00:00-22:00:00 Wed: 06:00:00-22:00:00 Thu: 06:00:00-22:00:00 Fri: 06:00:00-23:00:00 Sat: 06:30:00-23:00:00 Sun: 06:30:00-22:00:00","Wireless Hotspot",32.534603100,35.8478713000,0,,
73351053,"Stuyvesant Plaza","1475 Western Avenue",,,Albany,NY,12203-3520,"(518) 489-1064","Mon: 06:00:00-23:00:00 Tue: 06:00:00-23:00:00 Wed: 06:00:00-23:00:00 Thu: 06:00:00-23:00:00 Fri: 06:00:00-23:00:00 Sat: 06:30:00-23:00:00 Sun: 06:30:00-22:00:00","Wireless Hotspot",32.555443681,35.8550044454,0,,
73371047,"East View Plaza","8250 Transit Rd.","Eastview Plaza",,Williamsville,NY,14221-2820,"(716) 636-4863","Mon: 06:00:00-22:00:00 Tue: 06:00:00-22:00:00 Wed: 06:00:00-22:00:00 Thu: 06:00:00-22:00:00 Fri: 06:00:00-22:00:00 Sat: 06:00:00-22:00:00 Sun: 06:00:00-21:00:00","Wireless Hotspot",31.948028914,35.8207532053,0,,
73401326,Williamsville-Dublin-Buffalo,"5429 Main Street",,,Williamsville,NY,14221-6647,"(716) 633-4387","Mon: 05:00:00-23:00:00 Tue: 05:00:00-23:00:00 Wed: 05:00:00-23:00:00 Thu: 05:00:00-23:00:00 Fri: 05:00:00-23:00:00 Sat: 05:00:00-23:00:00 Sun: 06:00:00-21:00:00","Wireless Hotspot",32.537428074,35.8509510217,0,,
73411273,"23rd & 3rd","296-300 Third Avenue",,,"New York",NY,10010-5506,"(212) 598-9651","Mon: 05:30:00-22:00:00 Tue: 05:30:00-22:00:00 Wed: 05:30:00-22:00:00 Thu: 05:30:00-22:00:00 Fri: 05:30:00-23:00:00 Sat: 06:00:00-23:00:00 Sun: 06:00:00-22:00:00","Wireless Hotspot",32.587621646,35.7660169306,0,,
73421192,"41st & 3rd","639 3rd Avenue",,,"New York",NY,10017-5605,"(212) 973-1376","Mon: 06:00:00-20:00:00 Tue: 06:00:00-20:00:00 Wed: 06:00:00-20:00:00 Thu: 06:00:00-20:00:00 Fri: 06:00:00-20:00:00 Sat: 07:00:00-17:00:00 Sun: 00:00:00-00:00:00","Wireless Hotspot",32.340930495,36.2075912640,0,,
73441271,"60th & Broadway-II","1841 Broadway",,,"New York",NY,10023-7603,212-307-0162,"Mon: 05:00:00-01:00:00 Tue: 05:00:00-01:00:00 Wed: 05:00:00-01:00:00 Thu: 05:00:00-01:00:00 Fri: 05:00:00-01:00:00 Sat: 05:00:00-01:00:00 Sun: 05:00:00-01:00:00","Wireless Hotspot",31.947891890,35.8216158886,0,,
7345798,"Monroe Ave.-Rochester","680 Monroe Avenue",,,Rochester,NY,14607-3147,(585)-244-4545,"Mon: 05:30:00-21:00:00 Tue: 05:30:00-21:00:00 Wed: 05:30:00-21:00:00 Thu: 05:30:00-21:00:00 Fri: 05:30:00-22:00:00 Sat: 06:30:00-22:00:00 Sun: 06:30:00-21:00:00","Wireless Hotspot",31.981231581,35.9864188413,0,,
73461171,SONY,"550 Madison Avenue","The Sony Building",#A32,"New York",NY,10022-3211,"(212) 833-6102","Mon: 07:00:00-19:00:00 Tue: 07:00:00-19:00:00 Wed: 07:00:00-19:00:00 Thu: 07:00:00-19:00:00 Fri: 07:00:00-19:00:00 Sat: 08:00:00-19:00:00 Sun: 09:00:00-18:00:00","Wireless Hotspot",31.988906303,35.9012048243,0,,
7349910,"Continental Avenue","107-12 Continental Avenue",,,"Forest Hills",NY,11375,"(718) 793-4057","Mon: 06:00:00-22:30:00 Tue: 06:00:00-22:30:00 Wed: 06:00:00-22:30:00 Thu: 06:00:00-22:30:00 Fri: 06:00:00-23:00:00 Sat: 06:30:00-23:00:00 Sun: 06:30:00-22:00:00","Wireless Hotspot",31.948394975,35.8208547686,0,,
73511334,"Broadway-Saratoga Springs","351 Broadway",,,"Saratoga Springs",NY,12866-3111,518-581-9498,"Mon: 06:00:00-22:00:00 Tue: 06:00:00-22:00:00 Wed: 06:00:00-22:00:00 Thu: 06:00:00-22:00:00 Fri: 06:00:00-23:00:00 Sat: 06:30:00-23:00:00 Sun: 06:30:00-21:00:00","Wireless Hotspot",32.564991100,35.8038137000,0,,
7352920,"86th & Columbus","540 Columbus Avenue",,,"New York",NY,10024-3405,2124964163,"Mon: 05:30:00-22:00:00 Tue: 05:30:00-22:00:00 Wed: 05:30:00-22:00:00 Thu: 05:30:00-22:00:00 Fri: 05:30:00-22:30:00 Sat: 06:00:00-22:30:00 Sun: 06:00:00-22:00:00","Wireless Hotspot",32.534610500,35.8478705000,0,,
7353835,"1 Penn Plaza","1 Penn Plaza",,,"New York",NY,10119-0002,"(212) 760-3001","Mon: 05:30:00-22:00:00 Tue: 05:30:00-22:00:00 Wed: 05:30:00-22:00:00 Thu: 05:30:00-22:00:00 Fri: 05:30:00-22:00:00 Sat: 06:30:00-21:00:00 Sun: 06:30:00-21:00:00","Wireless Hotspot",32.421816099,35.9180846212,0,,
73541272,"70th & Broadway","2045 Broadway",,,"New York",NY,10023-3702,"(212) 496-1551","Mon: 05:30:00-23:00:00 Tue: 05:30:00-23:00:00 Wed: 05:30:00-23:00:00 Thu: 05:30:00-23:00:00 Fri: 05:30:00-00:00:00 Sat: 06:00:00-00:00:00 Sun: 06:00:00-22:30:00","Wireless Hotspot",32.565161699,35.6964816780,0,,
73581369,"Court Street-Brooklyn","50 Court Street",,,Brooklyn,NY,11201-4859,"(718) 855-0369","Mon: 05:00:00-23:00:00 Tue: 05:00:00-23:00:00 Wed: 05:00:00-23:00:00 Thu: 05:00:00-23:00:00 Fri: 05:00:00-23:00:00 Sat: 06:00:00-23:00:00 Sun: 06:30:00-23:00:00","Wireless Hotspot",32.036184353,36.0472848981,0,,
73601050,"Henrietta Plaza","1100 Jefferson Road",,,Henrietta,NY,14623-3135,585-424-2190,"Mon: 05:00:00-21:30:00 Tue: 05:00:00-21:30:00 Wed: 05:00:00-21:30:00 Thu: 05:00:00-21:30:00 Fri: 05:00:00-22:00:00 Sat: 05:30:00-22:00:00 Sun: 05:30:00-21:00:00","Wireless Hotspot",32.413254156,35.9068467967,0,,
73621506,"Richmond Avenue","2505 Richmond Avenue",,,"Staten Island",NY,10314-5867,"(718) 494-4451","Mon: 06:00:00-22:30:00 Tue: 06:00:00-22:30:00 Wed: 06:00:00-22:30:00 Thu: 06:00:00-22:30:00 Fri: 06:00:00-23:00:00 Sat: 06:30:00-23:00:00 Sun: 07:00:00-22:00:00","Wireless Hotspot",32.550006220,35.8469591948,0,,
73631017,"Niskayuna- Albany","2321-3 Nott Street East",,,Niskayuna,NY,12309-4342,"(518) 381-9340","Mon: 05:30:00-22:00:00 Tue: 05:30:00-22:00:00 Wed: 05:30:00-22:00:00 Thu: 05:30:00-22:00:00 Fri: 05:30:00-22:30:00 Sat: 06:30:00-22:30:00 Sun: 06:30:00-22:00:00","Wireless Hotspot",31.719721512,35.8034102705,0,,
73701274,"48th & 3rd","757 Third Avenue",,,"New York",NY,10017-2013,"(212) 715-9884","Mon: 05:00:00-21:00:00 Tue: 05:00:00-21:00:00 Wed: 05:00:00-21:00:00 Thu: 05:00:00-21:00:00 Fri: 05:00:00-22:00:00 Sat: 06:00:00-21:00:00 Sun: 06:00:00-21:00:00","Wireless Hotspot",31.979303181,35.9471715190,0,,
7.371e+10,"Stop & Shop-Forest Hills #539","8989 Union Turnpike",,,"Forest Hills",NY,11375,718-846-2310,"Mon: 06:00:00-22:00:00 Tue: 06:00:00-22:00:00 Wed: 06:00:00-22:00:00 Thu: 06:00:00-22:00:00 Fri: 06:00:00-22:00:00 Sat: 06:00:00-22:00:00 Sun: 06:00:00-22:00:00",,31.934681025,35.9390580483,0,,
7373988,"Grand Central Station","107 E 43rd St","Grand Central Terminal","Space MC-72","New York",NY,10170-0003,"(212) 599-4368","Mon: 05:00:00-22:00:00 Tue: 05:00:00-22:00:00 Wed: 05:00:00-22:00:00 Thu: 05:00:00-22:00:00 Fri: 05:00:00-23:00:00 Sat: 06:00:00-23:00:00 Sun: 06:00:00-21:00:00",,32.534671646,35.8434295663,0,,
7.375e+10,"Stop & Shop-W. Hempstead #2552","420 Hempstead Turnpike",,,"W. Hempstead",NY,11552-1340,,"Mon: 06:00:00-21:00:00 Tue: 06:00:00-21:00:00 Wed: 06:00:00-21:00:00 Thu: 06:00:00-21:00:00 Fri: 06:00:00-21:00:00 Sat: 06:00:00-21:00:00 Sun: 06:00:00-21:00:00",,31.980857152,35.9825510843,0,,
73751557,"195 Broadway","195 Broadway",,,"New York",NY,10007-3100,"(212) 385-1104","Mon: 05:30:00-21:30:00 Tue: 05:30:00-21:30:00 Wed: 05:30:00-21:30:00 Thu: 05:30:00-21:30:00 Fri: 05:30:00-21:30:00 Sat: 07:30:00-21:30:00 Sun: 07:30:00-21:00:00","Wireless Hotspot",32.037775857,36.0992796966,0,,
7378939,"Union Square","10 UNION SQUARE EAST",,,"New York",NY,10003-3314,"(212) 982-8426","Mon: 05:30:00-00:00:00 Tue: 05:30:00-00:00:00 Wed: 05:30:00-00:00:00 Thu: 05:30:00-00:00:00 Fri: 05:30:00-00:00:00 Sat: 05:30:00-00:00:00 Sun: 05:30:00-00:00:00","Wireless Hotspot",31.953175505,35.9290681303,0,,
73791056,"Wolfe Road","18 Wolf Rd",,,Albany,NY,12205-2609,"(518) 435-9280","Mon: 05:30:00-23:00:00 Tue: 05:30:00-23:00:00 Wed: 05:30:00-23:00:00 Thu: 05:30:00-23:00:00 Fri: 05:30:00-23:00:00 Sat: 06:30:00-23:00:00 Sun: 07:00:00-22:00:00","Wireless Hotspot",32.489991113,35.8268970636,0,,
73801585,"Irondequoit (Rochester)","2255 E. Ridge Road","Culver Ridge Plaza",,Irondequoit,NY,14622-2611,"(585) 342-1460","Mon: 05:30:00-22:00:00 Tue: 05:30:00-22:00:00 Wed: 05:30:00-22:00:00 Thu: 05:30:00-22:00:00 Fri: 05:30:00-23:00:00 Sat: 06:00:00-23:00:00 Sun: 06:00:00-22:00:00","Wireless Hotspot",32.058778432,35.8738258880,0,,
73811628,"Elmwood-Store & Training Ctr.","933 Elmwood Avenue",,,Buffalo,NY,14222-1211,"(716) 882-5440","Mon: 05:30:00-23:00:00 Tue: 05:30:00-23:00:00 Wed: 05:30:00-23:00:00 Thu: 05:30:00-23:00:00 Fri: 05:30:00-23:00:00 Sat: 05:30:00-23:00:00 Sun: 06:30:00-22:00:00","Wireless Hotspot",32.320358161,36.2132263934,0,,
73861642,"111th & Broadway","2853 Broadway",,,"New York",NY,10025-7817,2122807269,"Mon: 06:00:00-23:00:00 Tue: 06:00:00-23:00:00 Wed: 06:00:00-23:00:00 Thu: 06:00:00-23:00:00 Fri: 06:00:00-23:00:00 Sat: 06:00:00-23:00:00 Sun: 06:00:00-23:00:00","Wireless Hotspot",32.022534139,35.8400447572,0,,
73901054,"Newton Plaza-Loudonville","594 New Loudon Road",,,Latham,NY,12110-4025,"(518) 783-4544","Mon: 06:00:00-21:30:00 Tue: 06:00:00-21:30:00 Wed: 06:00:00-21:30:00 Thu: 06:00:00-21:30:00 Fri: 06:00:00-22:00:00 Sat: 06:30:00-22:00:00 Sun: 06:30:00-21:00:00","Wireless Hotspot",31.728891813,35.7958671638,0,,
7.391e+10,"Waldbaums-Baldwin Harbor-#452","905 Atlantic Avenue",,,"Baldwin Harbor",NY,11510-4240,"516- 867-7301","Mon: 07:00:00-21:00:00 Tue: 07:00:00-21:00:00 Wed: 07:00:00-21:00:00 Thu: 07:00:00-21:00:00 Fri: 07:00:00-21:00:00 Sat: 07:00:00-21:00:00 Sun: 07:00:00-21:00:00","Wireless Hotspot",31.927648384,35.9381940480,0,,
73911676,"215th St. & Northern Blvd., Bayside","215-29 Northern Blvd.",,,Bayside,NY,11361-3464,"(718) 281-4165","Mon: 05:30:00-22:00:00 Tue: 05:30:00-22:00:00 Wed: 05:30:00-22:00:00 Thu: 05:30:00-22:00:00 Fri: 05:30:00-23:00:00 Sat: 06:30:00-23:00:00 Sun: 06:30:00-22:00:00","Wireless Hotspot",31.893680778,35.8385375151,0,,
73931367,"49th & 8th-World Wide Plaza","325 W 49th St",,,"New York",NY,10019-7316,"(212) 765-2205","Mon: 06:00:00-22:00:00 Tue: 06:00:00-22:00:00 Wed: 06:00:00-22:00:00 Thu: 06:00:00-22:00:00 Fri: 06:00:00-22:00:00 Sat: 07:00:00-22:00:00 Sun: 07:00:00-22:00:00","Wireless Hotspot",32.073218810,35.8421457605,0,,
7.394e+10,"Waldbaums-Long Beach-#658","85 E Park Ave",,,"Long Beach",NY,11561,516-432-9077,"Mon: 07:00:00-21:00:00 Tue: 07:00:00-21:00:00 Wed: 07:00:00-21:00:00 Thu: 07:00:00-21:00:00 Fri: 07:00:00-21:00:00 Sat: 07:00:00-21:00:00 Sun: 07:00:00-21:00:00","Wireless Hotspot",32.323498770,36.3099532652,0,,
73941505,"81st & Columbus","444 Columbus Avenue",,,"New York",NY,10024-5130,212-769-2296,"Mon: 06:00:00-21:00:00 Tue: 06:00:00-21:00:00 Wed: 06:00:00-21:00:00 Thu: 06:00:00-21:00:00 Fri: 06:00:00-21:00:00 Sat: 06:00:00-21:00:00 Sun: 06:00:00-21:00:00","Wireless Hotspot",32.323493871,36.3101106304,0,,
7.395e+09,"Stop & Shop-New Rochelle #529","2425 Palmer Ave",,,"New Rochelle",NY,10801-4400,914-632-7084,"Mon: 06:00:00-20:00:00 Tue: 06:00:00-20:00:00 Wed: 06:00:00-20:00:00 Thu: 06:00:00-20:00:00 Fri: 06:00:00-20:00:00 Sat: 06:00:00-20:00:00 Sun: 06:00:00-20:00:00","Wireless Hotspot",31.909161291,35.9374584907,0,,
73951208,Hewlett,"1344 Broadway",,,Hewlett,NY,11557-1356,"(516) 295-3330","Mon: 06:00:00-22:00:00 Tue: 06:00:00-22:00:00 Wed: 06:00:00-22:00:00 Thu: 06:00:00-22:00:00 Fri: 06:00:00-22:30:00 Sat: 07:00:00-22:30:00 Sun: 07:00:00-22:00:00","Wireless Hotspot",32.328727858,36.1903933155,0,,
73971675,Farmingdale,"10 Michael Ave",,,Farmingdale,NY,11735-3920,631-454-4550,"Mon: 05:00:00-00:00:00 Tue: 05:00:00-00:00:00 Wed: 05:00:00-00:00:00 Thu: 05:00:00-00:00:00 Fri: 05:00:00-01:00:00 Sat: 05:00:00-01:00:00 Sun: 06:00:00-23:00:00","Wireless Hotspot",31.915881753,35.9341338529,0,,
73981655,"NY Plaza","2 Water St","3 New York Plaza",,"New York",NY,10004-2480,212-785-1082,"Mon: 05:30:00-20:00:00 Tue: 05:30:00-20:00:00 Wed: 05:30:00-20:00:00 Thu: 05:30:00-20:00:00 Fri: 05:30:00-20:00:00 Sat: 08:00:00-19:00:00 Sun: 00:00:00-00:00:00","Wireless Hotspot",31.953745500,35.8244162520,0,,
74031712,"35th & 7th","462 7th Avenue",,,"New York",NY,10018,"(212) 279-6432","Mon: 05:30:00-23:30:00 Tue: 05:30:00-23:30:00 Wed: 05:30:00-23:30:00 Thu: 05:30:00-23:30:00 Fri: 05:30:00-00:00:00 Sat: 06:30:00-00:00:00 Sun: 06:30:00-23:00:00","Wireless Hotspot",32.565648038,35.7804203374,0,,
74041643,"57th & Lexington","116 E. 57th Street",,,"New York",NY,10022-2613,"(212) 486-1632","Mon: 05:30:00-22:30:00 Tue: 05:30:00-22:30:00 Wed: 05:30:00-22:30:00 Thu: 05:30:00-22:30:00 Fri: 05:30:00-22:30:00 Sat: 06:00:00-22:30:00 Sun: 07:00:00-21:30:00","Wireless Hotspot",32.082339370,36.0744548599,0,,
74061586,"Bridgehampton Village","2488 Montauk Hwy",,,Bridgehampton,NY,11932,6315375851,"Mon: 05:30:00-21:00:00 Tue: 05:30:00-21:00:00 Wed: 05:30:00-21:00:00 Thu: 05:30:00-21:00:00 Fri: 05:30:00-21:00:00 Sat: 05:30:00-21:00:00 Sun: 05:30:00-21:00:00","Wireless Hotspot",32.057182798,35.8349616882,0,,
74071674,"92nd & 3rd","1642 Third Avenue",,,"New York",NY,10128-3618,"(212) 360-0425","Mon: 06:00:00-23:00:00 Tue: 06:00:00-23:00:00 Wed: 06:00:00-23:00:00 Thu: 06:00:00-23:00:00 Fri: 06:00:00-23:00:00 Sat: 06:00:00-23:00:00 Sun: 06:00:00-22:00:00","Wireless Hotspot",31.979621000,35.9786099000,0,,
74111582,Smithtown,"1 Miller Place",,,Smithtown,NY,11787-3629,631-265-1960,"Mon: 06:00:00-22:00:00 Tue: 06:00:00-22:00:00 Wed: 06:00:00-22:00:00 Thu: 06:00:00-22:00:00 Fri: 06:00:00-23:00:00 Sat: 06:00:00-23:00:00 Sun: 07:00:00-22:00:00","Wireless Hotspot",32.351799776,36.2037066007,0,,
74131713,Lynbrook,"659 Sunrise Highway",,,Lynbrook,NY,11563-3246,"(516) 599-4809","Mon: 06:00:00-22:00:00 Tue: 06:00:00-22:00:00 Wed: 06:00:00-22:00:00 Thu: 06:00:00-22:00:00 Fri: 06:00:00-23:00:00 Sat: 06:00:00-23:00:00 Sun: 07:00:00-22:00:00","Wireless Hotspot",31.953911816,35.8242693343,0,,
74141761,"47th & 9th","682 9th Avenue",,,"New York",NY,10036-3603,212-397-2288,"Mon: 06:00:00-23:00:00 Tue: 06:00:00-23:00:00 Wed: 06:00:00-23:00:00 Thu: 06:00:00-23:00:00 Fri: 06:00:00-23:00:00 Sat: 07:00:00-23:00:00 Sun: 07:00:00-22:00:00","Wireless Hotspot",32.545641239,35.8643767386,0,,
7416834,"55 Broad Street","55 Broad Street",,,"New York",NY,10004-2501,"(212) 742-2490","Mon: 05:30:00-22:00:00 Tue: 05:30:00-22:00:00 Wed: 05:30:00-22:00:00 Thu: 05:30:00-22:00:00 Fri: 05:30:00-22:00:00 Sat: 07:00:00-21:00:00 Sun: 07:00:00-21:00:00","Wireless Hotspot",32.438808631,36.1552275056,0,,
74201902,"261 5th Avenue","261 Fifth Avenue",,,"New York",NY,10016-7701,212-779-1557,"Mon: 06:00:00-20:30:00 Tue: 06:00:00-20:30:00 Wed: 06:00:00-20:30:00 Thu: 06:00:00-20:30:00 Fri: 06:00:00-20:30:00 Sat: 07:00:00-20:00:00 Sun: 07:00:00-20:00:00","Wireless Hotspot",32.501310742,35.8905332382,0,,
74251903,"Long Beach","101 West Park Avenue",,,"Long Beach",NY,11561-3322,516-670-9181,"Mon: 05:30:00-22:00:00 Tue: 05:30:00-22:00:00 Wed: 05:30:00-22:00:00 Thu: 05:30:00-22:00:00 Fri: 05:30:00-22:00:00 Sat: 06:30:00-22:00:00 Sun: 07:00:00-22:00:00","Wireless Hotspot",32.333580624,36.2063798044,0,,
7.426e+09,"575 Fifth Avenue (Relocation)","575 Fifth Avenue",,,"New York",NY,10017-2422,212-490-3189,"Mon: 06:00:00-22:00:00 Tue: 06:00:00-22:00:00 Wed: 06:00:00-22:00:00 Thu: 06:00:00-22:00:00 Fri: 06:00:00-22:00:00 Sat: 07:00:00-22:00:00 Sun: 07:00:00-21:00:00","Wireless Hotspot",31.953372065,35.8332296799,0,,
74261984,"575 Fifth Avenue","575 Fifth Avenue",,,"New York",NY,10017-2422,212-490-3189,"Mon: 06:00:00-22:00:00 Tue: 06:00:00-22:00:00 Wed: 06:00:00-22:00:00 Thu: 06:00:00-22:00:00 Fri: 06:00:00-22:00:00 Sat: 07:00:00-22:00:00 Sun: 07:00:00-21:00:00","Wireless Hotspot",31.979394854,35.9832844895,0,,
74271917,"29th & Park-Park Ave. South","424 Park Avenue South",,,"New York",NY,10016-8022,212-725-0637,"Mon: 06:00:00-22:00:00 Tue: 06:00:00-22:00:00 Wed: 06:00:00-22:00:00 Thu: 06:00:00-22:00:00 Fri: 06:00:00-22:00:00 Sat: 06:30:00-22:00:00 Sun: 06:30:00-22:00:00","Wireless Hotspot",30.202583551,35.7331788042,0,,
7429802,Suffern/Airmont,"215 Route 59","Airmont Village Square",,Suffern,NY,10901-5203,845-369-6959,"Mon: 05:30:00-22:30:00 Tue: 05:30:00-22:30:00 Wed: 05:30:00-22:30:00 Thu: 05:30:00-22:30:00 Fri: 05:30:00-22:30:00 Sat: 06:30:00-23:00:00 Sun: 06:30:00-21:30:00","Wireless Hotspot",32.617404728,35.8543045557,0,,
7431999,"Hartsdale Train Station","223 E Hartsdale Ave","Metro North Hartsdale Station",,Hartsdale,NY,10530-3502,914-722-2720,"Mon: 05:00:00-19:00:00 Tue: 05:00:00-19:00:00 Wed: 05:00:00-19:00:00 Thu: 05:00:00-19:00:00 Fri: 05:00:00-19:00:00 Sat: 06:30:00-19:00:00 Sun: 06:30:00-19:00:00","Wireless Hotspot",32.277346900,35.8956971000,0,,
74322586,"East Setauket","246 Route 25-A",,,Setauket,NY,11733-2885,631-941-0446,"Mon: 05:30:00-22:30:00 Tue: 05:30:00-22:30:00 Wed: 05:30:00-22:30:00 Thu: 05:30:00-22:30:00 Fri: 05:30:00-23:00:00 Sat: 05:30:00-23:00:00 Sun: 06:30:00-22:00:00","Wireless Hotspot",32.432033176,35.7711218549,0,,
74411994,"Park Slope;164 7th Avenue, Brooklyn","166 7th Avenue",,,Brooklyn,NY,11215-2222,718-369-3098,"Mon: 05:30:00-23:00:00 Tue: 05:30:00-23:00:00 Wed: 05:30:00-23:00:00 Thu: 05:30:00-23:00:00 Fri: 05:30:00-23:00:00 Sat: 06:30:00-23:00:00 Sun: 06:30:00-23:00:00","Wireless Hotspot",32.059949040,36.0860458881,0,,
74433688,"Rockefeller Center Concourse","30 Rockefeller Plaza",,"Space A","New York",NY,10112-0015,212-586-0911,"Mon: 05:30:00-22:00:00 Tue: 05:30:00-22:00:00 Wed: 05:30:00-22:00:00 Thu: 05:30:00-22:00:00 Fri: 05:30:00-22:00:00 Sat: 06:00:00-22:00:00 Sun: 06:00:00-22:00:00","Wireless Hotspot",31.956770071,35.9400579934,0,,
74443689,"Rockefeller Center Subway","30 Rockefeller Plaza",,,"New York",NY,10112-0015,"(212) 397-7950","Mon: 06:00:00-20:00:00 Tue: 06:00:00-20:00:00 Wed: 06:00:00-20:00:00 Thu: 06:00:00-20:00:00 Fri: 06:00:00-20:00:00 Sat: 08:00:00-20:00:00 Sun: 08:00:00-20:00:00","Wireless Hotspot",32.063388443,36.0928147074,0,,
74462301,"450 7th Avenue","450 7th Avenue",,,"New York",NY,10017,212-279-1122,"Mon: 06:00:00-21:30:00 Tue: 06:00:00-21:30:00 Wed: 06:00:00-21:30:00 Thu: 06:00:00-21:30:00 Fri: 06:00:00-22:00:00 Sat: 07:30:00-21:00:00 Sun: 07:30:00-20:00:00","Wireless Hotspot",31.958441828,35.9371866870,0,,
74476426,Sayville,"59 Main Street",,,Sayville,NY,11782-2501,631-244-8983,"Mon: 05:30:00-22:00:00 Tue: 05:30:00-22:00:00 Wed: 05:30:00-22:00:00 Thu: 05:30:00-22:00:00 Fri: 05:30:00-23:00:00 Sat: 05:30:00-23:00:00 Sun: 06:00:00-22:00:00","Wireless Hotspot",30.200901637,35.7372661909,0,,
74486486,"235 Delaware Ave","235 Delaware Ave",,,Buffalo,NY,14202-2008,716-853-2356,"Mon: 05:00:00-21:00:00 Tue: 05:00:00-21:00:00 Wed: 05:00:00-21:00:00 Thu: 05:00:00-21:00:00 Fri: 05:00:00-23:00:00 Sat: 06:00:00-23:00:00 Sun: 06:00:00-21:00:00","Wireless Hotspot",32.063613272,36.0923020677,0,,
74496007,Nyack,"80 Main Street",,,Nyack,NY,10960-3131,845-353-4069,"Mon: 05:30:00-21:30:00 Tue: 05:30:00-21:30:00 Wed: 05:30:00-21:30:00 Thu: 05:30:00-21:30:00 Fri: 05:30:00-22:30:00 Sat: 06:30:00-22:30:00 Sun: 07:00:00-21:30:00","Wireless Hotspot",31.954365067,35.8234242824,0,,
74556446,"Deer Park, Rt. 231","1932 Deer Park Avenue",,,"Deer Park",NY,11729-3333,631-243-3881,"Mon: 05:30:00-23:00:00 Tue: 05:30:00-23:00:00 Wed: 05:30:00-23:00:00 Thu: 05:30:00-23:00:00 Fri: 05:30:00-00:00:00 Sat: 06:30:00-00:00:00 Sun: 07:00:00-22:30:00","Wireless Hotspot",32.042915359,36.0985715921,0,,
74563949,"125th Street and Lenox","77-83 West 125th Street","85 West 125th Street",,"New York",NY,10027-4512,917-492-2454,"Mon: 06:00:00-22:30:00 Tue: 06:00:00-22:30:00 Wed: 06:00:00-22:30:00 Thu: 06:00:00-22:30:00 Fri: 06:00:00-23:00:00 Sat: 07:00:00-23:00:00 Sun: 07:00:00-22:00:00","Wireless Hotspot",31.958379546,35.9373208506,0,,
74627587,"545 Fifth Ave.","545 Fifth Ave.",,,"New York",NY,10017-3609,"(212) 687-1026","Mon: 05:30:00-22:00:00 Tue: 05:30:00-22:00:00 Wed: 05:30:00-22:00:00 Thu: 05:30:00-22:00:00 Fri: 05:30:00-22:00:00 Sat: 06:00:00-22:00:00 Sun: 06:00:00-22:00:00","Wireless Hotspot",32.021495094,36.0151164632,0,,
74636647,"41st and Broadway","1460 Broadway",,,"New York",NY,10036-7306,"(212) 869-0191","Mon: 05:30:00-00:00:00 Tue: 05:30:00-00:00:00 Wed: 05:30:00-00:00:00 Thu: 05:30:00-00:00:00 Fri: 05:30:00-01:00:00 Sat: 07:00:00-01:00:00 Sun: 07:00:00-00:00:00","Wireless Hotspot",32.545648778,35.8641618852,0,,
74646466,"55 Northern Blvd","55 Northern Boulevard",,,"Great Neck",NY,11021-4027,516-498-9585,"Mon: 05:30:00-22:00:00 Tue: 05:30:00-22:00:00 Wed: 05:30:00-22:00:00 Thu: 05:30:00-22:00:00 Fri: 05:30:00-23:00:00 Sat: 06:00:00-23:00:00 Sun: 06:00:00-22:00:00","Wireless Hotspot",32.036918430,35.7270330136,0,,
74656649,"2 Columbus Ave.","2 Columbus Avenue",,,"New York",NY,10023-6924,"(212) 489-6757","Mon: 05:30:00-23:00:00 Tue: 05:30:00-23:00:00 Wed: 05:30:00-23:00:00 Thu: 05:30:00-23:00:00 Fri: 05:30:00-23:00:00 Sat: 06:00:00-23:00:00 Sun: 06:00:00-22:00:00","Wireless Hotspot",32.018811846,35.8559529170,0,,
74666651,"Chambers and West Broadway","125 Chambers Street",,,"New York",NY,10007-1331,212-791-6368,"Mon: 05:30:00-22:30:00 Tue: 05:30:00-22:30:00 Wed: 05:30:00-22:30:00 Thu: 05:30:00-22:30:00 Fri: 05:30:00-22:30:00 Sat: 06:00:00-22:00:00 Sun: 07:00:00-21:30:00","Wireless Hotspot",31.953562670,35.8235749068,0,,
74688466,"39th and 8th","600 Eighth Ave.",,,"New York",NY,10018-3000,2129977341,"Mon: 05:30:00-00:00:00 Tue: 05:30:00-00:00:00 Wed: 05:30:00-00:00:00 Thu: 05:30:00-00:00:00 Fri: 05:30:00-00:00:00 Sat: 06:30:00-00:00:00 Sun: 06:30:00-22:00:00","Wireless Hotspot",31.908110855,35.9124572085,0,,
74708467,"35th and 8th","494 Eighth Ave.",,,"New York",NY,10001-2519,"(212) 947-3860","Mon: 05:30:00-23:00:00 Tue: 05:30:00-23:00:00 Wed: 05:30:00-23:00:00 Thu: 05:30:00-23:00:00 Fri: 05:30:00-23:30:00 Sat: 06:30:00-23:30:00 Sun: 06:30:00-22:00:00","Wireless Hotspot",32.414444924,35.9085719137,0,,
74747588,"93rd and Broadway","2498 Broadway",,,"New York",NY,10025-7428,917-441-1643,"Mon: 05:30:00-23:00:00 Tue: 05:30:00-23:00:00 Wed: 05:30:00-23:00:00 Thu: 05:30:00-23:00:00 Fri: 05:30:00-23:00:00 Sat: 06:00:00-23:00:00 Sun: 06:00:00-23:00:00","Wireless Hotspot",31.946516889,35.9437647134,0,,
74866847,Hamburg,"3540 McKinley Parkway",,,Blasdell,NY,14219-2600,716-828-9005,"Mon: 05:30:00-23:00:00 Tue: 05:30:00-23:00:00 Wed: 05:30:00-23:00:00 Thu: 05:30:00-23:00:00 Fri: 05:30:00-23:00:00 Sat: 05:30:00-23:00:00 Sun: 06:00:00-22:00:00","Wireless Hotspot",31.951460292,35.9482026800,0,,
74928546,"Howard Beach","157-41 Cross Bay Blvd.",,,"Howard Beach",NY,11414-2748,718-641-9332,"Mon: 06:30:00-22:00:00 Tue: 06:30:00-22:00:00 Wed: 06:30:00-22:00:00 Thu: 06:30:00-22:00:00 Fri: 06:30:00-00:00:00 Sat: 07:00:00-00:00:00 Sun: 07:00:00-23:00:00","Wireless Hotspot",31.897361081,35.9139989723,0,,
74936648,"100 Williams Street","100 William Street",,,"New York",NY,10038-4512,212-509-9709,"Mon: 06:00:00-20:00:00 Tue: 06:00:00-20:00:00 Wed: 06:00:00-20:00:00 Thu: 06:00:00-20:00:00 Fri: 06:00:00-20:00:00 Sat: 07:00:00-19:30:00 Sun: 07:00:00-19:00:00","Wireless Hotspot",32.271575027,36.4379295332,0,,
74948547,"Rockville Center","21 North Park Ave",,,"Rockville Center",NY,11570-5224,516-536-5318,"Mon: 06:00:00-22:00:00 Tue: 06:00:00-22:00:00 Wed: 06:00:00-22:00:00 Thu: 06:00:00-22:00:00 Fri: 06:00:00-23:00:00 Sat: 06:00:00-23:00:00 Sun: 07:00:00-21:00:00","Wireless Hotspot",31.897958992,35.8409110761,0,,
74978627,"Broadway and Bond","665 Broadway",,,"New York",NY,10012-2300,917-534-0799,"Mon: 06:00:00-22:00:00 Tue: 06:00:00-22:00:00 Wed: 06:00:00-22:00:00 Thu: 06:00:00-22:00:00 Fri: 06:00:00-23:00:00 Sat: 07:00:00-23:00:00 Sun: 07:00:00-21:30:00","Wireless Hotspot",32.535869211,35.8509345055,0,,
74996006,"New Paltz","1 Plattekill Avenue",,,"New Paltz",NY,12561-1918,845-256-9815,"Mon: 06:00:00-21:30:00 Tue: 06:00:00-21:30:00 Wed: 06:00:00-21:30:00 Thu: 06:00:00-21:30:00 Fri: 06:00:00-21:30:00 Sat: 06:30:00-21:30:00 Sun: 06:30:00-21:30:00","Wireless Hotspot",32.535146883,35.8516221522,0,,
75019812,"52nd Street and 8th Ave","871 8th Avenue",,,"New York",NY,10019-5761,212-246-7699,"Mon: 05:30:00-22:30:00 Tue: 05:30:00-22:30:00 Wed: 05:30:00-22:30:00 Thu: 05:30:00-22:30:00 Fri: 05:30:00-22:30:00 Sat: 07:00:00-00:00:00 Sun: 07:00:00-22:00:00","Wireless Hotspot",32.535526863,35.8515032192,0,,
75037287,Bohemia,"4577 Sunrise Highway",,,Oakdale,NY,11716-4605,631-218-3179,"Mon: 04:30:00-23:00:00 Tue: 04:30:00-23:00:00 Wed: 04:30:00-23:00:00 Thu: 04:30:00-23:00:00 Fri: 04:30:00-23:00:00 Sat: 04:30:00-23:00:00 Sun: 05:30:00-23:00:00","Wireless Hotspot",32.270326295,35.8980251739,0,,
75047590,Yorktown,"1932 Commerce Street",,,"Yorktown Heights",NY,10598-4410,914-243-5997,"Mon: 06:00:00-21:30:00 Tue: 06:00:00-21:30:00 Wed: 06:00:00-21:30:00 Thu: 06:00:00-21:30:00 Fri: 06:00:00-22:00:00 Sat: 06:00:00-22:00:00 Sun: 06:00:00-21:30:00","Wireless Hotspot",31.958863190,35.9342764142,0,,
75066650,"150 E. 42nd Street","150 E. 42nd Street",,,"New York",NY,10017-5612,212-949-4122,"Mon: 05:30:00-22:00:00 Tue: 05:30:00-22:00:00 Wed: 05:30:00-22:00:00 Thu: 05:30:00-22:00:00 Fri: 05:30:00-22:00:00 Sat: 06:30:00-22:00:00 Sun: 06:30:00-21:00:00","Wireless Hotspot",32.325444518,36.2140351047,0,,
7.507e+08,"33rd Street and 5th Avenue (Old Ban","334 Fifth Ave.",,,"New York",NY,10001-3105,212-279-2960,"Mon: 05:30:00-23:00:00 Tue: 05:30:00-23:00:00 Wed: 05:30:00-23:00:00 Thu: 05:30:00-23:00:00 Fri: 05:30:00-00:00:00 Sat: 05:30:00-00:00:00 Sun: 05:30:00-23:00:00","Wireless Hotspot",32.036785115,35.7271936039,0,,
75099876,"Westbury II","1149 Old Country Road",,,Westbury,NY,11590-5600,516-338-8711,"Mon: 05:30:00-23:00:00 Tue: 05:30:00-23:00:00 Wed: 05:30:00-23:00:00 Thu: 05:30:00-23:00:00 Fri: 05:30:00-23:00:00 Sat: 06:30:00-23:00:00 Sun: 07:00:00-22:00:00","Wireless Hotspot",31.979616588,35.9861869469,0,,
7.511e+08,"525 Seventh Avenue (New World)","525 7th Avenue",,,"New York",NY,10018,212-869-5273,"Mon: 06:00:00-22:00:00 Tue: 06:00:00-22:00:00 Wed: 06:00:00-22:00:00 Thu: 06:00:00-22:00:00 Fri: 06:00:00-22:00:00 Sat: 08:00:00-21:00:00 Sun: 08:00:00-21:00:00","Wireless Hotspot",32.028235755,35.8447253212,0,,
7.518e+08,"Central Valley/Woodbury Common","400 Evergreen Ct","Woodbury Common Premium Outlet","Route 22","Central Valley",NY,10917-6700,845-928-4744,"Mon: 07:00:00-22:00:00 Tue: 07:00:00-22:00:00 Wed: 07:00:00-22:00:00 Thu: 07:00:00-22:00:00 Fri: 07:00:00-22:00:00 Sat: 07:00:00-22:00:00 Sun: 07:00:00-22:00:00","Wireless Hotspot",32.535888250,35.8508766862,0,,
7.519e+09,"New York University","79 Washington Square",,,"New York",NY,10003-6617,212-995-3443,"Mon: 07:00:00-00:00:00 Tue: 07:00:00-00:00:00 Wed: 07:00:00-00:00:00 Thu: 07:00:00-00:00:00 Fri: 07:00:00-21:00:00 Sat: 08:00:00-23:00:00 Sun: 08:00:00-23:00:00","Wireless Hotspot",31.952553262,35.9839712743,0,,
75203047,Mamaroneck,"1030 West Boston Post Rd",,,Mamaroneck,NY,10543-3328,914-698-4818,"Mon: 05:30:00-22:00:00 Tue: 05:30:00-22:00:00 Wed: 05:30:00-22:00:00 Thu: 05:30:00-22:00:00 Fri: 05:30:00-22:00:00 Sat: 06:00:00-22:00:00 Sun: 06:00:00-21:00:00","Wireless Hotspot",31.947165150,35.9225728251,0,,
7.525e+08,"135 E 57 Street (New World)","135 East 57th Street",,,"New York",NY,10022-2050,212-935-1866,"Mon: 06:00:00-22:00:00 Tue: 06:00:00-22:00:00 Wed: 06:00:00-22:00:00 Thu: 06:00:00-22:00:00 Fri: 06:00:00-22:00:00 Sat: 07:00:00-22:00:00 Sun: 07:00:00-21:00:00",,30.257409532,35.4573167525,0,,
7.527e+09,"Javits Convention Ctr Taxi Nor","655 W 34th St",,,"New York",NY,10001-1114,212-216-2426,"Mon: - Tue: - Wed: - Thu: - Fri: - Sat: - Sun: -",,32.541508900,35.8442253000,0,,
7.528e+08,Selden,"1251 Middle Country Road",,,Selden,NY,11784-2523,631-696-4762,"Mon: 05:30:00-00:00:00 Tue: 05:30:00-00:00:00 Wed: 05:30:00-00:00:00 Thu: 05:30:00-00:00:00 Fri: 05:30:00-00:00:00 Sat: 05:30:00-00:00:00 Sun: 05:30:00-00:00:00","Wireless Hotspot",31.936965950,35.9168930633,0,,
7.532e+08,"Syracuse University","177 Marshall Street",,,Syracuse,NY,13210-1716,315-474-2863,"Mon: 05:30:00-23:00:00 Tue: 05:30:00-23:00:00 Wed: 05:30:00-23:00:00 Thu: 05:30:00-23:00:00 Fri: 05:30:00-23:00:00 Sat: 05:30:00-23:00:00 Sun: 06:00:00-22:00:00","Wireless Hotspot",31.927512673,35.9377294578,0,,
7.534e+08,"B'way & 114 Street (New World)","2929 Broadway",,,"New York",NY,10025-7819,212-932-0300,"Mon: 06:00:00-02:00:00 Tue: 06:00:00-02:00:00 Wed: 06:00:00-02:00:00 Thu: 06:00:00-02:00:00 Fri: 06:00:00-02:00:00 Sat: 06:00:00-02:00:00 Sun: 06:00:00-02:00:00","Wireless Hotspot",32.327410291,36.2150134858,0,,
7.535e+10,"SUNY/Fredonia-Cranston Hall","Old Main Drive",,"SUNY Fredonia - University Commons",Fredonia,NY,14063-0286,716-673-3417,"Mon: 07:00:00-23:00:00 Tue: 07:00:00-23:00:00 Wed: 07:00:00-23:00:00 Thu: 07:00:00-23:00:00 Fri: 07:00:00-01:00:00 Sat: 09:00:00-01:00:00 Sun: 09:00:00-23:00:00","Wireless Hotspot",32.016376035,35.8454405353,0,,
75368567,"36th and Madison","200 Madison Avenue",,,"New York",NY,10016-3903,212-684-6873,"Mon: 05:30:00-22:00:00 Tue: 05:30:00-22:00:00 Wed: 05:30:00-22:00:00 Thu: 05:30:00-22:00:00 Fri: 05:30:00-22:00:00 Sat: 07:00:00-22:00:00 Sun: 07:00:00-21:00:00","Wireless Hotspot",32.047022021,36.0976522084,0,,
7.539e+08,"Flushing - Main Street","41-02 Main Street",,,Flushing,NY,11355-3133,718-358-9355,"Mon: 05:30:00-23:00:00 Tue: 05:30:00-23:00:00 Wed: 05:30:00-23:00:00 Thu: 05:30:00-23:00:00 Fri: 05:30:00-00:00:00 Sat: 05:30:00-00:00:00 Sun: 06:30:00-23:00:00","Wireless Hotspot",32.538392451,35.8455185959,0,,
7.539e+10,"College St. Rose","420 Western Ave",,,Albany,NY,12203-1400,518-485-3946,"Mon: 07:00:00-19:00:00 Tue: 07:00:00-19:00:00 Wed: 07:00:00-19:00:00 Thu: 07:00:00-19:00:00 Fri: 07:00:00-19:00:00 Sat: 00:00:00-00:00:00 Sun: 00:00:00-00:00:00","Wireless Hotspot",32.541876029,35.8489400947,0,,
7.540e+08,"17th and Broadway (41 Union Square","41 Union Square West",,,"New York",NY,10003-3236,646-336-6945,"Mon: 05:30:00-00:00:00 Tue: 05:30:00-00:00:00 Wed: 05:30:00-00:00:00 Thu: 05:30:00-00:00:00 Fri: 05:30:00-00:00:00 Sat: 05:30:00-00:00:00 Sun: 05:30:00-00:00:00","Wireless Hotspot",31.951065581,35.9822702743,0,,
7.542e+10,"Stony Brook University-Long Is","Student Activities Center",,,"Stony Brook",NY,11794,631-632-6529,"Mon: 08:30:00-22:00:00 Tue: 08:30:00-22:00:00 Wed: 08:30:00-22:00:00 Thu: 08:30:00-22:00:00 Fri: 08:30:00-22:00:00 Sat: 12:00:00-22:00:00 Sun: 12:00:00-22:00:00","Wireless Hotspot",32.494705909,35.6789190956,0,,
75433408,"Roslyn Heights","373 Willis Avenue","CVS Plaza",,"Roslyn Heights",NY,11577-2321,516-625-7390,"Mon: 06:00:00-22:30:00 Tue: 06:00:00-22:30:00 Wed: 06:00:00-22:30:00 Thu: 06:00:00-22:30:00 Fri: 06:00:00-23:00:00 Sat: 06:00:00-23:00:00 Sun: 07:00:00-22:00:00","Wireless Hotspot",32.018627094,35.8482834360,0,,
7.546e+10,"University of Rochester","University of Rochester 201 Wilson Commo",,,Rochester,NY,14627,585-276-4070,"Mon: 07:30:00-00:30:00 Tue: 07:30:00-00:30:00 Wed: 07:30:00-00:30:00 Thu: 07:30:00-00:30:00 Fri: 07:30:00-00:30:00 Sat: 10:00:00-00:30:00 Sun: 10:00:00-00:30:00","Wireless Hotspot",32.348499616,36.2007915001,0,,
7.547e+08,"Sheridan Square (72 Grove Street)","72 Grove Street",,,"New York",NY,10014-3557,646-486-2216,"Mon: 05:30:00-23:30:00 Tue: 05:30:00-23:30:00 Wed: 05:30:00-23:30:00 Thu: 05:30:00-23:30:00 Fri: 05:30:00-00:30:00 Sat: 06:00:00-00:30:00 Sun: 06:00:00-23:30:00","Wireless Hotspot",32.067369706,36.0809612374,0,,
7.549e+10,"Limited Brands-NYC","1740 Broadway",,,"New York",NY,10019-4315,,"Mon: 07:00:00-16:00:00 Tue: 07:00:00-16:00:00 Wed: 07:00:00-16:00:00 Thu: 07:00:00-16:00:00 Fri: 07:00:00-16:00:00 Sat: 00:00:00-00:00:00 Sun: 00:00:00-00:00:00",,31.947600371,35.9198726535,0,,
7.555e+08,Astoria/Ditmars,"22-04 31st Street",,,Astoria,NY,11105-2714,718-626-6004,"Mon: 05:30:00-23:00:00 Tue: 05:30:00-23:00:00 Wed: 05:30:00-23:00:00 Thu: 05:30:00-23:00:00 Fri: 05:30:00-23:00:00 Sat: 05:30:00-23:00:00 Sun: 05:30:00-23:00:00","Wireless Hotspot",31.934137664,35.9215535903,0,,
7.557e+08,"50th & Second","943 Second Avenue",,,"New York",NY,10022-7744,212-715-0752,"Mon: 05:30:00-21:30:00 Tue: 05:30:00-21:30:00 Wed: 05:30:00-21:30:00 Thu: 05:30:00-21:30:00 Fri: 05:30:00-21:30:00 Sat: 06:00:00-22:00:00 Sun: 06:30:00-21:30:00","Wireless Hotspot",31.957172302,35.9176400811,0,,
7.558e+08,"96th & Madison","1378 Madison Avenue",,,"New York",NY,10128-0712,212-534-7225,"Mon: 05:30:00-22:30:00 Tue: 05:30:00-22:30:00 Wed: 05:30:00-22:30:00 Thu: 05:30:00-22:30:00 Fri: 05:30:00-22:30:00 Sat: 06:00:00-22:00:00 Sun: 06:00:00-22:00:00","Wireless Hotspot",31.897797144,35.8392518259,0,,
7.559e+09,"Marriott Marquis-Lobby","1535 Broadway",,,"New York",NY,10036-4098,212-398-1900,"Mon: 06:00:00-22:00:00 Tue: 06:00:00-22:00:00 Wed: 06:00:00-22:00:00 Thu: 06:00:00-22:00:00 Fri: 06:00:00-22:00:00 Sat: 06:00:00-22:00:00 Sun: 06:00:00-22:00:00",,32.537288339,35.8498321314,0,,
75596652,Whitestone,"138-11 20th Avenue","Triangle Plaza One",,Whitestone,NY,11356-2451,718-539-4072,"Mon: 05:30:00-22:00:00 Tue: 05:30:00-22:00:00 Wed: 05:30:00-22:00:00 Thu: 05:30:00-22:00:00 Fri: 05:30:00-22:30:00 Sat: 06:30:00-22:30:00 Sun: 06:30:00-22:00:00","Wireless Hotspot",32.018762803,35.8481983919,0,,
7.560e+08,"Broadway and Barclay (Woolworth)","233 Broadway",,,"New York",NY,10279-0001,212-619-1529,"Mon: 05:30:00-22:00:00 Tue: 05:30:00-22:00:00 Wed: 05:30:00-22:00:00 Thu: 05:30:00-22:00:00 Fri: 05:30:00-22:00:00 Sat: 07:00:00-21:00:00 Sun: 07:00:00-21:00:00","Wireless Hotspot",32.606287972,35.9402195995,0,,
7.566e+08,"Broadway & Reade","291 Broadway",,,"New York",NY,10007-1814,2124065310,"Mon: 05:30:00-20:30:00 Tue: 05:30:00-20:30:00 Wed: 05:30:00-20:30:00 Thu: 05:30:00-20:30:00 Fri: 05:30:00-20:30:00 Sat: 07:00:00-19:00:00 Sun: 07:30:00-19:00:00","Wireless Hotspot",32.063028104,36.0912905794,0,,
7.567e+08,"Steinway Street","31-44 Steinway Street",,,Astoria,NY,11103-3911,718-274-5700,"Mon: 05:30:00-22:00:00 Tue: 05:30:00-22:00:00 Wed: 05:30:00-22:00:00 Thu: 05:30:00-22:00:00 Fri: 05:30:00-23:00:00 Sat: 06:30:00-23:00:00 Sun: 07:00:00-22:00:00","Wireless Hotspot",32.499948334,35.8939109416,0,,
7.571e+09,"NY Thruway Pattersonville Trav","Milepost 168 W",,,Pattersonville,NY,12137,,"Mon: 06:00:00-21:00:00 Tue: 06:00:00-21:00:00 Wed: 06:00:00-21:00:00 Thu: 06:00:00-21:00:00 Fri: 06:00:00-22:00:00 Sat: 06:00:00-21:00:00 Sun: 06:00:00-22:00:00","Wireless Hotspot",32.534733455,35.8091617450,0,,
7.575e+08,"43rd St & Third Ave","685 Third Avenue",,,"New York",NY,10017-4024,6468651250,"Mon: 06:00:00-21:00:00 Tue: 06:00:00-21:00:00 Wed: 06:00:00-21:00:00 Thu: 06:00:00-21:00:00 Fri: 06:00:00-21:00:00 Sat: 07:30:00-19:00:00 Sun: 07:30:00-19:00:00","Wireless Hotspot",31.705343075,35.9492805612,0,,
7.576e+08,Melville,"64 Broad Hollow Road",,,Melville,NY,11747-2504,631-692-0392,"Mon: 05:30:00-21:00:00 Tue: 05:30:00-21:00:00 Wed: 05:30:00-21:00:00 Thu: 05:30:00-21:00:00 Fri: 05:30:00-22:00:00 Sat: 06:00:00-22:00:00 Sun: 07:00:00-21:00:00","Wireless Hotspot",32.332615587,36.2038317312,0,,
7.577e+08,"45th & Park Avenue","230 Park Avenue",,,"New York",NY,10169-0005,212-681-9407,"Mon: 05:30:00-21:00:00 Tue: 05:30:00-21:00:00 Wed: 05:30:00-21:00:00 Thu: 05:30:00-21:00:00 Fri: 05:30:00-21:00:00 Sat: 07:00:00-19:00:00 Sun: 00:00:00-00:00:00","Wireless Hotspot",32.092946403,36.0985824873,0,,
7.580e+09,"JFK - T8 American Air","51 W. Courtyard",,,Jamaica,NY,11430,,"Mon: - Tue: - Wed: - Thu: - Fri: - Sat: - Sun: -",,32.021150912,35.8460664568,0,,
7.583e+08,Clay,"7567 Oswego Rd","Rt. 57 Retail Center",,Liverpool,NY,13090-2960,3156228932,"Mon: 05:00:00-22:00:00 Tue: 05:00:00-22:00:00 Wed: 05:00:00-22:00:00 Thu: 05:00:00-22:00:00 Fri: 05:00:00-23:00:00 Sat: 05:00:00-23:00:00 Sun: 05:00:00-22:00:00","Wireless Hotspot",32.311939856,36.2146153321,0,,
7.584e+10,"JFK T2 Gate 24","Bldg 54",,,Jamaica,NY,11430,888-796-5282,"Mon: - Tue: - Wed: - Thu: - Fri: - Sat: - Sun: -",,31.945935497,35.8175451721,0,,
7.586e+08,"19th & 8th","177 Eighth Avenue",,,"New York",NY,10011-1602,2124148786,"Mon: 05:30:00-23:00:00 Tue: 05:30:00-23:00:00 Wed: 05:30:00-23:00:00 Thu: 05:30:00-23:00:00 Fri: 05:30:00-23:00:00 Sat: 06:00:00-23:00:00 Sun: 06:00:00-23:00:00","Wireless Hotspot",32.086298326,36.1039107463,0,,
7.587e+08,"24th & 6th","750 6th Avenue",,,"New York",NY,10010-2710,646-230-7208,"Mon: 05:30:00-22:00:00 Tue: 05:30:00-22:00:00 Wed: 05:30:00-22:00:00 Thu: 05:30:00-22:00:00 Fri: 05:30:00-23:00:00 Sat: 06:00:00-23:00:00 Sun: 06:00:00-22:00:00","Wireless Hotspot",31.950532067,35.8183905274,0,,
7.587e+09,"Marriott Financial Center","85 West St",,,"New York",NY,10006-1532,212-266-6162,"Mon: 06:00:00-19:00:00 Tue: 06:00:00-19:00:00 Wed: 06:00:00-19:00:00 Thu: 06:00:00-19:00:00 Fri: 06:00:00-20:00:00 Sat: 06:00:00-20:00:00 Sun: 06:00:00-19:00:00",,32.024807458,35.8659319221,0,,
7.589e+10,"NY Ardsley Travel Plaza","mile post 6N NY Thru way",,,"Hastings on Hudson",NY,10706,914-478-7681,"Mon: 06:00:00-21:00:00 Tue: 06:00:00-21:00:00 Wed: 06:00:00-21:00:00 Thu: 06:00:00-21:00:00 Fri: 06:00:00-21:00:00 Sat: 06:00:00-21:00:00 Sun: 06:00:00-21:00:00","Wireless Hotspot",32.022540103,36.0635230969,0,,
